X,Y,FID,SchoolCode,Latitude,Longitude,ESDCode,ESDName,LEACode,LEAName,SchoolName,LowestGrad,HighestGra,AddressLin,AddressL_1,City,State,ZipCode,PrincipalN,Email,Phone,OrgCategor,AYPCode,GradeCateg,OrgCateg_1
-119.195783178735226,46.224367091909365,2001,4007,46.2243731339,-119.195796946,11801,Educational Service District 123,03017,Kennewick School District,Benton/Franklin Juvenile Justice Center,6,12,5606 WEST CANAL DRIVE, ,KENNEWICK,Washington,99336-1300,Dennis  Boatman,dennis.boatman@ksd.org,509.222.6522, Detention Center,J,Other,Public
-122.354845479482933,47.21184420924633,2002,5549,47.2118500004,-122.35486,OSPI,Office of Superintendent of Public Instruction,27901,Chief Leschi Tribal Compact,Chief Leschi Schools,K,12,5625 52nd St E, ,Puyallup,Washington,98371,Bruce  Leonardy,bruce.leonardy@leschischools.org,253.445.6000," Not Affiliated With District, Tribal School",Q,K-12,Tribal
-122.460763275915824,45.593231177297021,2003,5534,45.593236863,-122.460777478,06801,Educational Service District 112,06117,Camas School District,Odyssey Middle School,6,8,5780 Pacific Rim Blvd, ,Camas,Washington,98607,Aaron J Smith,aaronj.smith@camas.wednet.edu,360-833-5780," Affiliated With District, Public School",P,Middle School,Public
-117.558706205236248,47.80896368585514,2004,5417,47.8089699997,-117.55872,32801,Educational Service District 101,32325,Nine Mile Falls School District,Re-Engagement School (Nine Mile Falls),9,12,5909 Highway 291, ,Nine Mile Falls,Washington,99026,Willard B Osborn,bosborn@9mile.org,509.340.4200," Public School, Re-Engagement School",R,High School,Public
-122.917265435121791,46.994554278444582,2005,5305,46.9945600002,-122.91728,OSPI,Office of Superintendent of Public Instruction,34801,Capital Region ESD 113,GRAVITY High School,11,13,6005 Tyee Dr. SW, ,Tumwater,Washington,98512,Gerald  Grubbs,ggrubbs@esd113.org,360.927.6232," Public School, Re-Engagement School",R,High School,Public
-122.445953138333479,47.255807552919194,2006,1816,47.255813337,-122.445967683,17801,Puget Sound Educational Service District 121,27010,Tacoma School District,TCC Fresh Start,9,12,601 S 8th St, ,Tacoma,Washington,98405-0000,Gil  Mendoza,gmendoz@tacoma.k12.wa.us,(253) 571-1126," Affiliated With District, College/University, Public School",C,High School,Public
-122.335984113117291,48.418249946134871,2007,3363,48.4182558041,-122.335998908,OSPI,Office of Superintendent of Public Instruction,29801,Northwest Educational Service District 189,Skagit County Detention Center,8,12,605 3RD ST, ,MOUNT VERNON,Washington,98273-3867,Steve  Dahl,sdahl@nwesd.org,360.299.4000, Detention Center,J,High School,Public
-119.277886204462177,46.299813959915177,2008,3469,46.29982,-119.277900001,11801,Educational Service District 123,03400,Richland School District,Twin Rivers Group Home,9,12,605 MCMURRAY, ,RICHLAND,Washington,99352-2239,Randy  Kimbler,kimblr@dshs.wa.gov,(509) 734-7140, Institution,I,High School,Public
-122.341435417859188,47.496414191933475,2009,5277,47.4964199996,-122.34145,17801,Puget Sound Educational Service District 121,17401,Highline School District,Southwest Youth and Family Services,9,12,C/O New Start,614 SW 120th St,Seattle,Washington,98146,Michael  Sita,michael.sita@highlineschools.org,206.631.7630," Affiliated With District, Contract School, Public School",Z,High School,Public
-122.341435417859188,47.496414191933475,2010,5254,47.4964199996,-122.34145,17801,Puget Sound Educational Service District 121,17401,Highline School District,Gateway to College,10,13,614 SW 120th Street, ,Burien,Washington,98146,Michael Thomas Sita,michael.sita@highlineschools.org,206.433.8760," Alternative School, Public School",A,High School,Public
-119.21904623026542,46.221683960426049,2011,5235,46.2216899996,-119.21906,11801,Educational Service District 123,03017,Kennewick School District,Benton County Jail,9,12,7122 W Okanogan Place, ,Kennewick,Washington,99337,Dennis  Boatman,dennis.boatman@ksd.org,509.222.6522," Adult Jail, Affiliated With District",J,High School,Public
-122.301969499431095,47.160673206806095,2012,5321,47.160679,-122.301984,17801,Puget Sound Educational Service District 121,27003,Puyallup School District,Puyallup Open Doors/POD,9,12,716 South Hill Park Drive,Suite B,Puyalllup,Washington,98373,Adriana  Julian,JuliaAC@puyallup.k12.wa.us,253.841.8630," Public School, Re-Engagement School",R,High School,Public
-122.301969499431095,47.160673206806095,2013,5322,47.160679,-122.301984,17801,Puget Sound Educational Service District 121,27003,Puyallup School District,Puyallup Parent Partnership Program,K,8,716 South Hill Park Drive,Suite B,Puyallup,Washington,98373,Adriana  Julian,JuliaAC@puyallup.k12.wa.us,253.841.8630," Alternative School, Public School",A,Other,Public
-122.54837951005814,47.220832473524233,2014,5353,47.2208382447,-122.548394064,17801,Puget Sound Educational Service District 121,27083,University Place School District,CHS Drop-Out Reengagement Program,9,12,8425 40TH ST W, ,University Place,Washington,98466, , , ," Public School, Re-Engagement School",R,High School,Public
-122.898488094356409,48.491810198758891,2015,5299,48.491816,-122.898503,29801,Northwest Educational Service District 189,28144,Lopez School District,CVA-Lopez Island,K,12,86 School Road, ,Lopez Island,Washington,98261,Lisa C. Shelby,lshelby@lopez.k12.wa.us,360.468.2202 ext 2250," Alternative School, Public School",A,K-12,Public
-122.556648112024902,47.17871124185956,2016,5298,47.1787170102,-122.556662659,17801,Puget Sound Educational Service District 121,27400,Clover Park School District,Oakridge Group Home,9,12,8805 Steilacoom Blvd, ,Lakewood,Washington,98498,Carolyn   Watkins,cwatkins@cloverpark.k12.wa.us,253.756.2522, Institution,I,High School,Public
-122.559405475605999,47.181816865359885,2017,3910,47.1818226343,-122.559420023,17801,Puget Sound Educational Service District 121,27400,Clover Park School District,Oak Grove,K,5,8805 Steilacoom Blvd SW, ,Lakewood,Washington,98498-4771,Carolyn  Watkins,cwatkins@cloverpark.k12.wa.us,253.756.2522, Institution,I,Elementary School,Public
-119.264275039407323,47.104482904739697,2018,5273,47.104489,-119.264289,04801,North Central Educational Service District 171,13161,Moses Lake School District,Columbia Basin Technical Skills Center,10,12,900 W Yonezawa Blvd, ,Moses Lake,Washington,98837,Christine   Armstrong,carmstrong@cbtech.k12.wa.us,509.766.2650," Public School, Vocational/technical school",V,High School,Public
-117.396516268683015,47.65496368100235,2019,5434,47.6549699999,-117.396529999,OSPI,Office of Superintendent of Public Instruction,32801,Educational Service District 101,NEWESD 101 Open Doors,11,12,"901 E. 2nd Avenue, Suite 100", ,Spokane,Washington,99202,Dr. Trina  Clayeux,trinac@nextgenzone.org,509.340.7800," Public School, Re-Engagement School",R,High School,Public
-117.425596265383717,47.65121368397508,2020,2045,47.6512200004,-117.42561,32801,Educational Service District 101,32081,Spokane School District,Shrine Hospital,PK,12,911 W 5Th Ave, ,Spokane,Washington,99204-1571,Wendy  Bleecker,WendyBl@SpokaneSchools.org,509.354.5900," Public School, Special Education School",S,PK-12,Public
-119.914536098347398,46.255504025124253,2021,5399,46.2555099998,-119.91455,39801,Educational Service District 105,39200,Grandview School District,Step Up to College Open Doors High School,9,12,913 W 2nd ST, ,Grandview,Washington,98930,Henry M Strom,hmstrom@gsd200.org,509.882.8500," Public School, Re-Engagement School",R,High School,Public
-122.377955408304416,47.517074195029224,2022,5469,47.5170799999,-122.37797,34950,Washington State Charter School Commission,17905,Summit Public School: Atlas,Summit Public School: Atlas,6,12,9601 35th Avenue SW, ,Seattle,Washington,98126,Katheryn  Bubalo,kbubalo@summitps.org,504.220.9397,"Charter,  Public School, Regular School",P,Other,Charter
-120.639995906089609,46.572754075387721,2023,5540,46.5727600004,-120.64001,39801,Educational Service District 105,39208,West Valley School District (Yakima),West Valley Open Doors,9,12,9800 Zier Rd, ,Yakima,Washington,98908,Ashley  Lieberknecht,lieberknechta@wvsd208.org,509-823-2600," Public School, Re-Engagement School",R,High School,Public
-117.411206268942337,47.647973682594795,2024,4286,47.6479799998,-117.41122,32801,Educational Service District 101,32081,Spokane School District,Sacred Heart Hospital,PK,12,W 101 8Th Ave, ,Spokane,Washington,99204-2396,Rebecca  Doughty,RebeccaDo@SpokaneSchools.org,509.354.6401," Public School, Special Education School",S,PK-12,Public
-118.617202067752103,46.974968871824586,2025,5303,46.974975023,-118.617215883,32801,Educational Service District 101,01160,Ritzville School District,Lind Ritzville Middle School,6,8,PO Box 340, ,LInd,Washington,99341, , , ," Affiliated With District, Public School",P,Middle School,Public
-120.316451603648773,47.427326187768834,2026,5316,47.4273321987,-120.316465823,04801,North Central Educational Service District 171,04246,Wenatchee School District,Open Doors  Re-Engagement Wenatchee,9,12,PO Box 2360, ,Wenatchee,Washington,98807,Kory  Kalahar,kalahar.k@wenatcheeschools.org,509.663.7947," Public School, Re-Engagement School",R,High School,Public
-124.637534757620614,47.908410668339314,2027,5430,47.9084162568,-124.637549801,OSPI,Office of Superintendent of Public Instruction,05903,Quileute Tribal School District,Quileute Tribal School,K,12,PO Box 39, ,La Push,Washington,98350,Sheri  Crippen,sheri.crippen@quileutetribalschool.org,360.374.5657," Not Affiliated With District, Tribal School",Q,K-12,Tribal
-122.548030286439129,45.644161833774987,2028,5535,45.6441675146,-122.548044512,06801,Educational Service District 112,06114,Evergreen School District (Clark),Cascadia Technical Academy ALE,9,12,12200 NE 28th Street, ,Vancouver,Washington,98682-7858,Mark  Mansell,Mark.Mansell@evergreenps.org,360.604.1050," Public School, Regular School",P,High School,Public
-122.676513664872218,45.629967584234414,2029,5290,45.6299732522,-122.676527909,OSPI,Office of Superintendent of Public Instruction,06801,Educational Service District 112,Clark County Juvenile Detention School,3,12,PO Box 5000, ,Vancouver,Washington,98660,Kevin  Johnson,kevin.johnson@esd112.org,360.750.7500 ext.105, Detention Center,J,Other,Public
-122.874765256633211,47.823336229706321,2030,5236,47.823342,-122.87478,18801,Olympic Educational Service District 114,16048,Quilcene School District,PEARL,K,8,PO Box 40, ,Quilcene,Washington,98376,Gary   Stebbins,gstebbins@qsd48.org,360.765.3363," Alternative School, Public School",A,Other,Public
-122.330095401738092,47.58093418637548,2031,5260,47.5809399999,-122.33011,17801,Puget Sound Educational Service District 121,17001,Seattle Public Schools,Seattle Skills Center,9,12,PO Box 34165, ,Seattle,Washington,98124-1165,Dan  Golosman,dpgolosman@seattleschools.org,206.252.0730," Public School, Vocational/technical school",V,High School,Public
-122.343545741044025,47.282280609090613,2032,5279,47.2822864052,-122.343560275,17801,Puget Sound Educational Service District 121,17210,Federal Way School District,Birth to Three Development Center,PK,PK,PO Box 24269, ,Federal Way,Washington,98093-1269,Jennifer  Westover,jwestove@fwps.org,253.945.2143," Public School, Special Education School",S,PK Only,Public
-119.517495698872253,48.417991845850239,2033,5195,48.417998,-119.51751,04801,North Central Educational Service District 171,24019,Omak School District,Washington Virtual Academy Omak Elementary,K,5,PO Box 833, ,Omak,Washington,98841,Tammy  Alonzo,taalonzo@k12.com,253.964.1068," Public School, Regular School",P,Elementary School,Public
-119.533585698551022,48.410497848326877,2034,5196,48.410504,-119.5336,04801,North Central Educational Service District 171,24019,Omak School District,Washington Virtual Academy Omak Middle School,6,8,PO Box 833, ,Omak,Washington,98841,Tammy  Alanzo,taalonzo@k12.com,253.964.1068," Public School, Regular School",P,Middle School,Public
-119.58124777940445,48.365997318547194,2035,3193,48.3660034628,-119.58126208,04801,North Central Educational Service District 171,24105,Okanogan School District,Okanogan Co Juvenile Detention,8,12,PO Box 592, ,Okanogan,Washington,98840-0000,Roy   Johnson,rojohnson@oksd.wednet.edu,509.422.3629, Detention Center,J,High School,Public
-123.8103898446372,46.662301037637157,2036,5247,46.6623066511,-123.810404481,34801,Capital Region ESD 113,25118,South Bend School District,Pacific County Jail,9,12,PO Box 437, ,South Bend,Washington,98586,Jon  Tienhaara,jtienhaa@southbendschools.org,360.875.6041," Alternative School, Public School",A,High School,Public
-122.349567542391,46.925098224260879,2037,5300,46.9251040002,-122.349582,17801,Puget Sound Educational Service District 121,27404,Eatonville School District,Mt. Rainier Parent Partnership,K,8,P.O. Box 698, ,Eatonville,Washington,98328,Linn  Ames,l.ames@eatonville.wednet.edu,360.879.1650," Alternative School, Public School",A,Other,Public
-122.26336485918992,46.868485633856956,2038,5531,46.8684914154,-122.26337929,17801,Puget Sound Educational Service District 121,27404,Eatonville School District,Eatonville Online Academy,6,8,PO Box 698, ,Eatonville,Washington,98328,Janna  Rush,j.rush@eatonville.wednet.edu,360-879-1400," Alternative School, Public School",A,Middle School,Public
-118.055520275078237,48.606319679358236,2039,5516,48.606325997,-118.055534347,32801,Educational Service District 101,33212,Kettle Falls School District,Kettle Falls Early Learning Center,PK,PK,PO Box 458, ,Kettle Falls,Washington,99141, , , ," Affiliated With District, Public School",P,PK Only,Public
-120.329643327174608,46.37748194992524,2040,5550,46.3774878926,-120.329657326,OSPI,Office of Superintendent of Public Instruction,39901,Yakama Nation Tribal Compact,Yakama Nation School,K,12,PO Box 151, ,Toppenish,Washington,989480151,Adam  Strom,adam@yakama.com,509.865.4778," Not Affiliated With District, Tribal School",Q,K-12,Tribal
-117.778897758906595,48.918212536654067,2041,5252,48.9182189035,-117.778911851,32801,Educational Service District 101,33211,Northport School District,Northport Homelink Program,K,12,PO Box 679, ,Northport,Washington,99157,Donald   Baribault,homelink@northportschools.org,509 732-4251," Alternative School, Public School",A,K-12,Public
-122.961688174203346,46.716634688581422,2042,3598,46.7166403904,-122.961702687,OSPI,Office of Superintendent of Public Instruction,21926,Centralia College,Garrett Heyns High School,8,12,P.O. Box 900, ,Shelton,Washington,98584,Jacquie  Armstrong,jmarmstrong@doc1.wa.gov,360.427.4674, Institution,I,High School,Public
-122.598806180308188,47.168900441055342,2043,5013,47.168906205,-122.598820731,17801,Puget Sound Educational Service District 121,27001,Steilacoom Hist. School District,PreSchool and ECEAP,PK,PK, , , , , ,Susanne  Beauchaine,sbeauchaine@steilacoom.k12.wa.us,253.983.2239," Public School, Regular School",P,PK Only,Public
-119.896553712731802,46.740997162736527,2044,5120,46.7410031723,-119.896567711,39801,Educational Service District 105,13073,Wahluke School District,Mattawa Elementary Pre-School,PK,PK,P.O. Box 907, ,Mattawa,Washington,99349-0907,Sean  Langdon,selangdon@wahluke.net,509.932.4433," Preschool, Public School",P,PK Only,Public
-121.176721672142278,47.236622087957883,2045,5242,47.2366279996,-121.176736,39801,Educational Service District 105,19028,Easton School District,Easton Secondary School,7,12,PO Box 8, ,Easton,Washington,98925,Patrick  Dehuff,plouset@easton.wednet.edu,509.656.2317," Affiliated With District, Public School",P,Other,Public
-122.628341938238577,45.64221779427136,2046,5258,45.6422234667,-122.628356177,06801,Educational Service District 112,06037,Vancouver School District,Vancouver Contracted Programs,9,12,PO BOX 8937, ,VANCOUVER,Washington,98668-8937,Trish Ann Piliado,Trish.Piliado@vansd.org,360.313.1330," Public School, Regular School",P,High School,Public
-118.872705202583333,46.662453896181212,2047,5261,46.6624599996,-118.872718999,11801,Educational Service District 123,11051,North Franklin School District,North Franklin Virtual Academy,K,6,PO Box 829, ,Connell,Washington,99326,Jim  Jacobs,jjacobs@nfsd.org,509.234.2021," Alternative School, Public School",A,Elementary School,Public
-122.073284540837321,47.145514184577166,2048,5338,47.1455199997,-122.073299,17801,Puget Sound Educational Service District 121,27416,White River School District,White River Reengagement Program,9,12,PO Box 2050, ,Buckley,Washington,98321,Michael  Hagadone,mhagadone@whiteriver.wednet.edu,360.829.3817," Public School, Re-Engagement School",R,High School,Public
-122.628341938238577,45.64221779427136,2049,5342,45.6422234667,-122.628356177,06801,Educational Service District 112,06037,Vancouver School District,Open Doors Vancouver,9,12,PO BOX 8937, ,VANCOUVER,Washington,98668-8937,Deanna Lynn Hogan,Deanna.Hogan@vansd.org,360.313.4990," Public School, Re-Engagement School",R,High School,Public
-122.025873552160249,47.164967822531302,2050,5390,47.1649736445,-122.025888008,17801,Puget Sound Educational Service District 121,27416,White River School District,White River Homeschool,K,12,PO Box 2050, ,Buckley,Washington,98321,Mike  Hagadone,mhagadone@whiteriver.wednet.edu,360.829.0600," Not Affiliated With District, Public School",P,K-12,Public
-122.9812918926132,46.727064073841902,2051,5463,46.7270697741,-122.98130641,34801,Capital Region ESD 113,21401,Centralia School District,Early Learning Center,PK,PK,PO BOX 610, ,Centralia,Washington,98531,Kate  Pothier,kpothier@centralia.wednet.edu,360.330.7600," Preschool, Public School",P,PK Only,Public
-117.715468487145387,48.27799532970063,2052,5523,48.27800166,-117.715482417,32801,Educational Service District 101,33036,Chewelah School District,Chewelah Open Doors Reengagement Program,10,13,PO Box 47, ,Chewelah,Washington,99109,Erin  Dell,edell@chewelahk12.us,509.685.6800," Public School, Re-Engagement School",R,High School,Public
-118.605250695545678,48.875227346937542,2053,5530,48.8752336236,-118.605264936,32801,Educational Service District 101,10050,Curlew School District,Ferry County Open Doors,8,12,PO Box 370, ,Curlew,Washington,99118,John  Glenewinkel,jgwinkel@curlew.wednet.edu,509-779-4931," Public School, Re-Engagement School",R,High School,Public
-117.43406782812059,47.709517997450114,2054,2950,47.709524317,-117.434081577,32801,Educational Service District 101,32081,Spokane School District,Ridgeview Elementary,PK,6,5610 N. Maple, ,Spokane,Washington,99205-6798,Melinda  Keberle,MelindaKe@SpokaneSchools.org,509.354.4000," Public School, Regular School",P,Elementary School,Public
-117.4281882945386,47.663446018098838,2055,5113,47.6634523351,-117.428202032,32801,Educational Service District 101,32081,Spokane School District,Spokane Regional Health District,PK,PK,1101 W. College Ave, ,Spokane,Washington,99201, , , ," Preschool, Public School",P,PK Only,Public
-117.980990235457469,47.296155763686933,2056,3050,47.296162,-117.981004,32801,Educational Service District 101,22008,Sprague School District,Sprague Elementary,K,4,PO Box 305, ,Sprague,Washington,99032-0305,William  Ressel,bressel@sprague.wednet.edu,509.257.2511," Public School, Regular School",P,Elementary School,Public
-117.585691355192026,47.087957740121183,2057,3068,47.087964,-117.585705,32801,Educational Service District 101,38322,St. John School District,St John/Endicott High,9,12,W 301 Nob Hill, ,Saint John,Washington,99171-0058,Mark  Purvine,mpurvine@stjohn.wednet.edu,509.648.3336," Public School, Regular School",P,High School,Public
-122.372826241490401,48.245110155483161,2058,5004,48.2451159996,-122.372841001,29801,Northwest Educational Service District 189,31401,Stanwood-Camano School District,Saratoga School,K,12,9307 271st Street NW, ,Stanwood,Washington,98292,MONICA  MCDANIEL,mmcdaniel@stanwood.wednet.edu,360.629.1372," Alternative School, Public School",A,K-12,Public
-120.693138507749538,48.337498973571499,2059,2265,48.337505,-120.693153,04801,North Central Educational Service District 171,04069,Stehekin School District,Stehekin Elementary,K,8,PO Box 37, ,Stehekin,Washington,98852-0037,Ron  Scutt,ronscuttstehekin@aol.com,(509) 670-9193," Public School, Regular School",P,Other,Public
-121.883822872820275,45.695491251498687,2060,1765,45.695497,-121.883837,06801,Educational Service District 112,30303,Stevenson-Carson School District,Preschool,PK,PK,PO Box 850, ,Stevenson,Washington,98648-0850,Karen  Schreiber,schreiberk@scsd303.org,509.427.5672," Public School, Special Education School",S,PK Only,Public
-121.814718869423558,47.865930102772097,2061,1670,47.8659359857,-121.814733446,29801,Northwest Educational Service District 189,31311,Sultan School District,Student Services School,PK,PK,514 4th Street, ,Sultan,Washington,98294-0000,Gayle  Wilson,gayle.wilson@sultan.k12.wa.us,360.793.9801 ext. 1042," Public School, Special Education School",S,PK Only,Public
-122.178030864191214,47.18439797529993,2062,3349,47.184403783,-122.178045349,17801,Puget Sound Educational Service District 121,27320,Sumner School District,Bonney Lake Elementary,PK,5,18715 80th St E, ,Bonney Lake,Washington,98390-0000,Bobbi  Snider,bobbi_snider@sumnersd.org,253.891.4500," Public School, Regular School",P,Elementary School,Public
-122.237383289117957,47.204783852717767,2063,1781,47.2047896551,-122.237397789,17801,Puget Sound Educational Service District 121,27320,Sumner School District,Sumner Special Services,PK,PK,1202 WOOD AVENUE, ,SUMNER,Washington,98390-0000,Keoni  Smith,keoni_smith@sumnersd.org,253.891.6000," Public School, Special Education School",S,PK Only,Public
-122.445953138333479,47.255807552919194,2064,1514,47.255813337,-122.445967683,17801,Puget Sound Educational Service District 121,27010,Tacoma School District,Alternative Spcl Needs Div Occ,9,12,601 S 8TH ST, ,TACOMA,Washington,98405-4614,John  Goebel,jgoebel@tacoma.k12.wa.us,(253) 571-1040," Public School, Special Education School",S,High School,Public
-122.446930223286827,47.256361002646351,2065,1585,47.2563667866,-122.446944769,17801,Puget Sound Educational Service District 121,27010,Tacoma School District,Comm Based Trans Program,11,12,601 S 8th St, ,Tacoma,Washington,98405-0000,Betsy  Minor-Reid,bminnor@tacoma.k12.wa.us,253.571.1145," Public School, Special Education School",S,High School,Public
-122.510351835249693,47.255477820895209,2066,1797,47.2554835978,-122.510366391,17801,Puget Sound Educational Service District 121,27010,Tacoma School District,Day Reporting School,9,12,5501 6th Avenue, ,Tacoma,Washington,98406-0000,Greg  Eisnaugle,geisnau@tacoma.k12.wa.us,253.571.2670," Alternative School, Public School",A,High School,Public
-122.505862738217616,47.270095091950168,2067,2747,47.270100871,-122.505877297,17801,Puget Sound Educational Service District 121,27010,Tacoma School District,Downing,PK,5,2502 N Orchard St, ,Tacoma,Washington,98406-0000,Olga  Manos,omanos@tacoma.k12.wa.us,253.571.7133," Public School, Regular School",P,Elementary School,Public
-122.495413652039858,47.261091831449413,2068,2103,47.261097611,-122.495428206,17801,Puget Sound Educational Service District 121,27010,Tacoma School District,Jefferson,PK,5,6501 N 23rd St, ,Tacoma,Washington,98406-0000,Avance  Byrd,abyrd@tacoma.k12.wa.us,253.571.2261," Public School, Regular School",P,Elementary School,Public
-122.485745309365512,47.23052472326593,2069,4109,47.230530502,-122.485759856,17801,Puget Sound Educational Service District 121,27010,Tacoma School District,Oakland High School,9,12,3319 S Adams St, ,Tacoma,Washington,98409-0000,John  Jones,jjones@tacoma.k12.wa.us,253.571.5102," Alternative School, Public School",A,High School,Public
-122.515420590542305,47.253189016639894,2070,4283,47.2531947929,-122.515435146,17801,Puget Sound Educational Service District 121,27010,Tacoma School District,Pearl Street Center,6,12,815 S Pearl St, ,Tacoma,Washington,98465-0000,Betsy  Minor-Reid,bminnor@tacoma.k12.wa.us,253.571.2600," Public School, Special Education School",S,Other,Public
-122.510950821348757,47.301880363750136,2071,5169,47.301886144,-122.510965388,17801,Puget Sound Educational Service District 121,27010,Tacoma School District,Science and Math Institute,9,12,5501 N. Pearl St, ,Tacoma,Washington,98407,Jon   Ketler,jketler@tacoma.k12.wa.us,253.571.2300," Public School, Regular School",P,High School,Public
-122.44693422742921,47.255676520831983,2072,5192,47.2556823048,-122.446948773,17801,Puget Sound Educational Service District 121,27010,Tacoma School District,Special Services,PK,12,601 S. 8th Street, ,Tacoma,Washington,98405,Barbara   O'Rorke,bororke@tacoma.k12.wa.us,253.571.1224," Alternative School, Public School",A,PK-12,Public
-122.446520124433874,47.252288378116695,2073,5183,47.2522941621,-122.446534669,17801,Puget Sound Educational Service District 121,27010,Tacoma School District,Tacoma Business Academy,9,12,601 S 8th Street,c/o John Page/Annex Bldg.,Tacoma,Washington,98405,Rue  Palmer,rpalmer@tacoma.k12.wa.us,253.571.1126," Alternative School, Public School",A,High School,Public
-122.445953138333479,47.255807552919194,2074,5184,47.255813337,-122.445967683,17801,Puget Sound Educational Service District 121,27010,Tacoma School District,Tacoma Pierce County Education Center,9,12,601 S 8th street,c/o Miguel Villahermosa,Tacoma,Washington,98405, , , ," Adult Jail, Affiliated With District, Public School",J,High School,Public
-122.436919955400995,47.243594948815186,2075,1860,47.243600733,-122.436934497,17801,Puget Sound Educational Service District 121,27010,Tacoma School District,Tacoma School of the Arts,10,12,PO Box 1357, ,Tacoma,Washington,98402-0000,Jon  Ketler,jketler@tacoma.k12.wa.us,253.571.7900," Public School, Regular School",P,High School,Public
-124.28740214002103,47.344186401117284,2076,5032,47.344192,-124.287417,34801,Capital Region ESD 113,14077,Taholah School District,Taholah Elementary & Middle School,K,8,PO Box 249, ,Taholah,Washington,98587-0249,Patricia  Larriva,plarriva@taholah.org,360.276.4780," Public School, Regular School",P,Other,Public
-122.847295474331361,46.862244279009964,2077,4238,46.86225,-122.84731,34801,Capital Region ESD 113,34402,Tenino School District,Tenino Elementary School,3,5,PO Box 4024, ,Tenino,Washington,98589-4024,Charly  Harrington,harringtonc@tenino.k12.wa.us,360.264.3720," Public School, Regular School",P,Elementary School,Public
-122.848946665614648,46.440683832422195,2078,5190,46.44068953,-122.848961102,34801,Capital Region ESD 113,21237,Toledo School District,Cowlitz Prairie Academy,7,12,PO Box 469, ,Toledo,Washington,98591,MARTIN  HUFFMAN,mhuffman@toledo.k12.wa.us,360.864.6325," Affiliated With District, Public School",P,Other,Public
-119.4324252596832,48.702254310796846,2079,3176,48.702260491,-119.432439612,04801,North Central Educational Service District 171,24404,Tonasket School District,Tonasket Elementary School,PK,5,35ES HIGHWAY 20, ,TONASKET,Washington,98855-0000,Lilly  Martin,lmartin@tonasket.wednet.edu,509.486.4933," Public School, Regular School",P,Elementary School,Public
-119.434357035099964,48.701700522047602,2080,4196,48.701706702,-119.434371387,04801,North Central Educational Service District 171,24404,Tonasket School District,Tonasket Middle School,6,8,35MS HIGHWAY 20, ,TONASKET,Washington,98855-0000,Kristi  Krieg,kkrieg@tonasket.wednet.edu,509.486.2147," Public School, Regular School",P,Middle School,Public
-120.334011000757258,46.381531057269846,2081,1508,46.3815370003,-120.334025001,39801,Educational Service District 105,39202,Toppenish School District,Computer Academy Toppenish High School,6,12,143 WARD RD, ,TOPPENISH,Washington,98948-1000,Enrique  Romero,eromero@toppenish.wednet.edu,509.865.3377," Alternative School, Public School",A,Other,Public
-122.740705470403896,46.324145022322391,2082,4264,46.324150724,-122.740719865,06801,Educational Service District 112,08130,Toutle Lake School District,Toutle Lake Elementary,K,6,5050 Spirit Lake Hwy, ,Toutle,Washington,98649-9701,Vicky  Frandsen,vicky.frandsen@toutlesd.k12.wa.us,360.274.6142 ext.2002," Public School, Regular School",P,Elementary School,Public
-121.515696876516955,45.989174197858411,2083,3062,45.98918,-121.515711,06801,Educational Service District 112,20400,Trout Lake School District,Trout Lake Elementary,K,4,PO Box 488, ,Trout Lake,Washington,98650-0488,Douglas  Dearden,d.dearden@tlschool.net,509.395.2571," Public School, Regular School",P,Elementary School,Public
-122.913668438253751,46.982399278344133,2084,5014,46.982405,-122.913683,34801,Capital Region ESD 113,34033,Tumwater School District,New Market High School,10,12,7299 New Market Street SW, ,Tumwater,Washington,98501,Kris  Blum,kris.blum@newmarketskills.com,360.570.4500," Alternative School, Public School",A,High School,Public
-122.948088433577439,46.978214282888139,2085,1713,46.97822,-122.948103,34801,Capital Region ESD 113,34033,Tumwater School District,Secondary Options,8,12,7741 Littlerock Road SW, ,Olympia,Washington,98512-0000,Dave  Meyers,dave.meyers@tumwater.k12.wa.us,360.709.7760," Alternative School, Public School",A,High School,Public
-117.721266093234192,48.169388678006598,2086,1932,48.169395,-117.72128,32801,Educational Service District 101,33070,Valley School District,Columbia Virtual Academy,K,8,3030 Huffman Road, ,Valley,Washington,99181,Dave  Vail,Dave.Vail@cva.org,509.937.2753," Alternative School, Public School",A,K-12,Public
-122.639165761195514,45.635974328845712,2087,1738,45.63598,-122.63918,06801,Educational Service District 112,06037,Vancouver School District,Gate Program,12,12,3100 E 18TH ST, ,VANCOUVER,Washington,98661-5645,Jeremy  Berliss,Jeremy.Berliss@vansd.org,360.313.1800," Public School, Special Education School",S,High School,Public
-122.620616150597357,45.642581098204886,2088,3932,45.642586772,-122.620630388,06801,Educational Service District 112,06037,Vancouver School District,Lewis and Clark High School,9,12,2901 GENERAL ANDERSON AVE, ,VANCOUVER,Washington,98661-6181,Steven D Lindblom,steve.lindblom@vansd.org,360.313.4350," Public School, Regular School",P,High School,Public
-122.584735773192747,45.619431325396789,2089,3556,45.6194370006,-122.58475,06801,Educational Service District 112,06037,Vancouver School District,Vancouver Home Connection,K,12,PO BOX 8937, ,VANCOUVER,Washington,98668-8937,Deanna Lynn Hogan,deanna.hogan@vansd.org,360.313.4990," Alternative School, Public School",A,K-12,Public
-122.584735773192747,45.619431325396789,2090,5149,45.6194370006,-122.58475,06801,Educational Service District 112,06037,Vancouver School District,Vancouver Virtual Learning Academy,6,12,PO BOX 8937, ,VANCOUVER,Washington,98668-8937,Deanna Lynn Hogan,deanna.hogan@vansd.org,360.313.4990," Alternative School, Public School",A,K-12,Public
-122.455291416372177,47.423008208006543,2091,1822,47.423014,-122.455306,17801,Puget Sound Educational Service District 121,17402,Vashon Island School District,Family Link,K,12,20120 VASHON HWY SW, ,VASHON,Washington,98070-6026,Danny  Rock,drock@vashonsd.org,206.463.9171," Alternative School, Public School",A,K-12,Public
-122.457265415814106,47.423228207969515,2092,1938,47.423234,-122.45728,17801,Puget Sound Educational Service District 121,17402,Vashon Island School District,Student Link,9,12,9600 SW 204th St, ,Vashon,Washington,98070,Danny  Rock,drock@vashonsd.org,206.463.9171," Alternative School, Public School",A,High School,Public
-123.377395177485468,46.200336543433984,2093,3467,46.200342175,-123.377409648,06801,Educational Service District 112,35200,Wahkiakum School District,Wahkiakum High School,9,12,PO Box 398, ,CATHLAMET,Washington,98612-0398,Stephanie  Leitz,sleitz@wahksd.k12.wa.us,360.795.3271," Public School, Regular School",P,High School,Public
-119.898817069766309,46.74044571002608,2094,1981,46.7404517194,-119.898831068,39801,Educational Service District 105,13073,Wahluke School District,Developmental Pre-School,PK,PK,PO Box 907,411 E. Saddle Mt. Drive,Mattawa,Washington,99349,Sean  Langdon,selangdon@wahluke.net,509.932.4433," Public School, Special Education School",S,PK Only,Public
-119.89977500148494,46.741556991270343,2095,4490,46.741563,-119.899789,39801,Educational Service District 105,13073,Wahluke School District,Saddle Mountain Elementary,K,5,P.O. Box 907, ,Mattawa,Washington,99349-0000,Teri  Davison,tdavison@wahluke.net,509.932.5693," Public School, Regular School",P,Elementary School,Public
-119.920656998717575,46.73791199331567,2096,1835,46.737918,-119.920671,39801,Educational Service District 105,13073,Wahluke School District,Sentinel Tech Alt School,9,12,P.O. Box 907, ,Mattawa,Washington,99349-0000,William  Von Bracht,wvonbracht@wahluke.net,509.932.3133," Alternative School, Public School",A,High School,Public
-119.89651900172673,46.742938990516308,2097,5144,46.742945,-119.896533,39801,Educational Service District 105,13073,Wahluke School District,Wahluke Junior High,6,8,PO Box 907, ,Mattawa,Washington,99349,Andrew  Harlow,auharlow@wahluke.net,509.932.4455," Public School, Regular School",P,Middle School,Public
-118.15448641630968,46.266293854863711,2098,2174,46.2663,-118.1545,11801,Educational Service District 123,36401,Waitsburg School District,Preston Hall Middle School,6,8,P O Box 217, ,Waitsburg,Washington,99361-0217,Stephanie  Wooderchak,swooderchak@waitsburgsd.org,509.337.9474," Public School, Regular School",P,Middle School,Public
-118.152805415844952,46.267138854113284,2099,2386,46.267145,-118.152819,11801,Educational Service District 123,36401,Waitsburg School District,Waitsburg High School,9,12,P O Box 217, ,Waitsburg,Washington,99361-0217,Stephanie  Wooderchak,swooderchak@waitsburgsd.org,509.337.6351," Public School, Regular School",P,High School,Public
-118.33718642308223,46.059293887178363,2100,2407,46.0593,-118.3372,11801,Educational Service District 123,36140,Walla Walla Public Schools,Alternative Education Program,9,12,500 Tausick Way, ,WALLA WALLA,Washington,99362-2907,Ron  Higgins,rhiggins@wwps.org,509.527.3020," Alternative School, Public School",A,High School,Public
-118.352551420245476,46.056451888696145,2101,5187,46.056458,-118.352565,11801,Educational Service District 123,36140,Walla Walla Public Schools,HEAD START/ECEAP PRESCHOOL,PK,PK,1150 W Chestnut St, ,Walla Walla,Washington,99362,DIANA  EVENSON,devenson@wwps.org,509.526.1780," Affiliated With District, Public School",P,PK Only,Public
-120.422779567046604,46.445807402950749,2102,4022,46.445813341,-120.422793596,39801,Educational Service District 105,39207,Wapato School District,Pace Alternative High School,6,12,310 S. Wasco Avenue, ,Wapato,Washington,98951-1357,Paul  Zagelow,PaulZ@wapatosd.org,509.877.6138," Alternative School, Public School",A,Other,Public
-119.042172109633626,46.960362891613173,2103,3273,46.9603690003,-119.042186,04801,North Central Educational Service District 171,13146,Warden School District,Warden High School,9,12,101 W BECK WAY, ,WARDEN,Washington,98857-9401,Courtney  McCoy,cmccoy@warden.wednet.edu,509.349.2581," Public School, Regular School",P,High School,Public
-119.041585155062577,46.960675031343825,2104,3909,46.9606811392,-119.041599045,04801,North Central Educational Service District 171,13146,Warden School District,Warden Middle School,6,8,101 W BECK WAY, ,WARDEN,Washington,98857-9401,Chris  McKnight,cmcknight@warden.wednet.edu,509.349.2902," Public School, Regular School",P,Middle School,Public
-122.317729388976801,45.575221529179835,2105,1899,45.5752272284,-122.317743564,06801,Educational Service District 112,06112,Washougal School District,Washougal Special Services,PK,PK,4855 Evergreen Way, ,WASHOUGAL,Washington,98671-9176,Allison  Blakely,allison.blakely@washougalsd.org,360.954.3021," Public School, Special Education School",S,PK Only,Public
-120.069702776190226,47.644876950153467,2106,2162,47.644883,-120.069717,04801,North Central Educational Service District 171,09209,Waterville School District,Waterville High School,6,12,PO Box 490, ,Waterville,Washington,98858-0490,Catherine  Nelson,cnelson@waterville.wednet.edu,509.745.8585," Public School, Regular School",P,Other,Public
-117.985906106140717,47.889467723332437,2107,2549,47.889474,-117.98592,32801,Educational Service District 101,33049,Wellpinit School District,Wellpinit Elementary School,K,5,PO Box 390, ,Wellpinit,Washington,99040-0390,Kim  Ewing,kewing@wellpinit.org,509.258.4535," Public School, Regular School",P,Elementary School,Public
-120.316451603648773,47.427326187768834,2108,1612,47.4273321987,-120.316465823,04801,North Central Educational Service District 171,04246,Wenatchee School District,Skill Source,9,12,233 North Chelan, ,Wenatchee,Washington,98801-0000,KORY  KALAHAR,kalahar.k@wenatcheeschools.org,509.663.3369," Alternative School, Public School",A,High School,Public
-117.284262255587535,47.675495503234444,2109,1842,47.675501835,-117.284275969,32801,Educational Service District 101,32363,West Valley School District (Spokane),Spokane Valley Transition School,9,12,2011 N HUTCHINSON RD, ,SPOKANE,Washington,99212-0000,Larry  Bush,larry.bush@wvsd.org,509.922.5475," Alternative School, Public School",A,High School,Public
-120.558685273316101,46.612019155043832,2110,5096,46.6120250901,-120.558699361,39801,Educational Service District 105,39208,West Valley School District (Yakima),Children's Village,PK,PK,3801 Kern Road, ,Yakima,Washington,98902,Jennifer  Allen,allenj@wvsd208.org,509.965.2080," Public School, Special Education School",S,PK Only,Public
-120.650085909787464,46.549526077354713,2111,5008,46.549532,-120.6501,39801,Educational Service District 105,39208,West Valley School District (Yakima),West Valley Preschool,PK,PK,3006 S Wiley Rd, ,Yakima,Washington,98903-9720,Richard D Pryor,pryorr@wvsd208.org,509.965.2031," Public School, Special Education School",S,PK Only,Public
-121.92755591367451,46.535441193404004,2112,3555,46.535446988,-121.927570218,34801,Capital Region ESD 113,21303,White Pass School District,White Pass Elementary School,K,6,PO Box 188, ,Randle,Washington,98377-0278,Stephen   Vance,svance@whitepass.k12.wa.us,360.497.7300," Public School, Regular School",P,Elementary School,Public
-122.025873552160249,47.164967822531302,2113,5045,47.1649736445,-122.025888008,17801,Puget Sound Educational Service District 121,27416,White River School District,White River Special Ed Services,PK,K,P. O. Box 2050, ,Buckley,Washington,98321,Hugh  Flint,hflint@whiteriver.wednet.edu,360.829.3957," Public School, Special Education School",S,Elementary School,Public
-118.705677001067869,47.753254805152785,2114,3290,47.753261,-118.705691,32801,Educational Service District 101,22200,Wilbur School District,Wilbur Elementary School,K,6,PO Box 1090, ,Wilbur,Washington,99185-1090,Belinda R Ross,belindar@wilbur.wednet.edu,509.647.5602," Public School, Regular School",P,Elementary School,Public
-119.120874687557361,47.425650915635195,2115,2472,47.4256570469,-119.120888692,04801,North Central Educational Service District 171,13167,Wilson Creek School District,Wilson Creek Elementary,K,6,PO Box 46, ,Wilson Creek,Washington,98860-0000,Brad  Smedley,bsmedley@wilsoncreek.org,509.345.2541," Public School, Regular School",P,Elementary School,Public
-122.89213254712071,46.490276303840425,2116,4369,46.490282,-122.892147,34801,Capital Region ESD 113,21232,Winlock School District,Winlock Middle School,6,8,241 NORTH MILITARY ROAD, ,WINLOCK,Washington,98596-0000,Brian   Maley,bmaley@winlock.wednet.edu,360.785.3046," Public School, Regular School",P,Middle School,Public
-120.961446034746587,45.661001165713095,2117,2605,45.6610069997,-120.96146,06801,Educational Service District 112,20094,Wishram School District,Wishram High And Elementary Schl,PK,12,PO Box 8, ,Wishram,Washington,98673-0008,michael  ROBERTS,mike.roberts@wishramschool.org,509.748.2551," Public School, Regular School",P,PK-12,Public
-122.750515399537889,45.903615716579331,2118,1795,45.903621393,-122.75052971,06801,Educational Service District 112,08404,Woodland School District,TEAM High School,9,12,759 3rd Street, ,Woodland,Washington,98674, , , ," Alternative School, Public School",A,High School,Public
-122.748329689717792,45.904420323578648,2119,5409,45.904426,-122.748344,06801,Educational Service District 112,08404,Woodland School District,Woodland Middle School,5,8,755 Park St, ,Woodland,Washington,98674,James  Johnston,johnstoj@woodlandschools.org,360.841.2855," Public School, Regular School",P,Middle School,Public
-120.511439804957348,46.581537361337411,2120,5019,46.5815432986,-120.511453878,39801,Educational Service District 105,39007,Yakima School District,Early Childhood Center,PK,PK,400 West Viola, ,Yakima,Washington,98902,Amanda  Jewell,Jewell.Amanda@yakimaschools.org,509.573.7019," Public School, Special Education School",S,PK Only,Public
-120.523011787371459,46.617309488884324,2121,4093,46.617315428,-120.52302587,39801,Educational Service District 105,39007,Yakima School District,Stanton Academy,9,12,802 River Rd, ,Yakima,Washington,98902-0000,Dave  Chaplin,Chaplin.Dave@yakimaschools.org,509.573.1201," Alternative School, Public School",A,High School,Public
-120.514777756931579,46.601725190226418,2122,5153,46.6017311289,-120.514791835,39801,Educational Service District 105,39007,Yakima School District,Yakima Online,6,12,Yakima School District,104 N 4th Ave,Yakima,Washington,98902,Lois  Menard,menard.lois@yakimaschools.org,509.573.5581," Alternative School, Public School",A,Other,Public
-123.746039042678234,48.136095305859691,2123,5030,48.136101,-123.746054,18801,Olympic Educational Service District 114,05313,Crescent School District,HomeConnection,K,12,PO Box 20, ,Joyce,Washington,98343,David  Bingham,daveb@crescent.wednet.edu,360.928.3311," Alternative School, Public School",A,K-12,Public
-117.310860588064244,47.653592921048052,2124,1567,47.653599249,-117.310874301,32801,Educational Service District 101,32081,Spokane School District,Eagle Peak at Pratt,3,12,6903 E 4th Ave, ,Spokane Valley,Washington,99212,Lisa  Pacheco,LisaPa@SpokaneSchools.org,509.354.7100," Alternative School, Public School",A,Other,Public
-122.330241088616191,47.068949907768122,2125,5206,47.068955693,-122.330255574,17801,Puget Sound Educational Service District 121,27403,Bethel School District,Liberty Middle School,6,8,7319 Eustis-Hunt Rd E, ,Spanaway,Washington,98387,Seth  Humphrey,shumphrey@bethelsd.org,253.683.8300," Public School, Regular School",P,Jr High,Public
-122.202200068462915,47.370802354585479,2126,5275,47.3708081702,-122.202214599,17801,Puget Sound Educational Service District 121,17415,Kent School District,iGrad,9,12,25668 104TH AVE SE,25672 104th Ave SE,Kent,Washington,98030-7610,Carol  Cleveland,carol.cleveland@kent.k12.wa.us,253.373.4723," Public School, Re-Engagement School",R,High School,Public
-122.141142286119205,47.592123809692403,2127,5240,47.592129644,-122.141156856,17801,Puget Sound Educational Service District 121,17405,Bellevue School District,Bellevue Big Picture School,6,12,14844 SE 22nd Street, ,Bellevue,Washington,98007,Bethany Ann Spinler,spinlerb@bsd405.org,425.456.7800," Alternative School, Public School",A,Other,Public
-122.263165633549931,47.499129767359896,2128,3380,47.499135584,-122.263180202,17801,Puget Sound Educational Service District 121,17001,Seattle Public Schools,Rainier View Elementary School,PK,5,11650 BEACON AV S, ,SEATTLE,Washington,98178-2881,Anitra  Pinchback-Jones,alpinchback@seattleschools.org,206.252.6700," Public School, Regular School",P,Elementary School,Public
-122.507031717307086,48.801327041912536,2129,5239,48.801332901,-122.507046633,29801,Northwest Educational Service District 189,37501,Bellingham School District,Cordata Elementary School,PK,5,4420 Aldrich Rd, ,Bellingham,Washington,98226-5218,Analisa  Ficklin,analisa.ficklin@bellinghamschools.org,360.676.6461," Public School, Regular School",P,Elementary School,Public
-122.618355204898492,48.865728104486877,2130,5207,48.865733955,-122.618370156,29801,Northwest Educational Service District 189,37502,Ferndale School District,Cascadia Elementary,K,5,6175 Church Rd, ,Ferndale,Washington,98248,Kellie  Larrabee,kellie.larrabee@ferndalesd.org,360.383.2300," Public School, Regular School",P,Elementary School,Public
-122.540803830883959,48.832541734445449,2131,5245,48.832547591,-122.54081876,29801,Northwest Educational Service District 189,37502,Ferndale School District,WINDWARD HIGH SCHOOL,9,12,P.O. Box 698, ,Ferndale,Washington,98248,Scott   Brittain,scott.brittain@ferndalesd.org,360.383.9210," Public School, Regular School",P,High School,Public
-122.06340244336198,47.594532158077826,2132,5201,47.594538,-122.063417,17801,Puget Sound Educational Service District 121,17411,Issaquah School District,Creekside Elementary,K,5,20777 SE 16th St, ,Sammamish,Washington,98075,Tera  Coyle,CoyleT@issaquah.wednet.edu,425.837.5201," Public School, Regular School",P,Elementary School,Public
-119.273821902008308,46.191324779537155,2133,5220,46.191330812,-119.273835676,11801,Educational Service District 123,03017,Kennewick School District,Cottonwood Elementary,K,5,16734 S. Cottonwood Creek Blvd, ,Kennewick,Washington,99338,MaryAnn  Kautzky,maryann.kautzky@ksd.org,509-222-6404," Affiliated With District, Public School",P,Elementary School,Public
-119.298515036881213,47.133615862742865,2134,5251,47.133621957,-119.29852901,04801,North Central Educational Service District 171,13161,Moses Lake School District,Park Orchard Elementary School,K,5,417 N Paxson Drive, ,Moses Lake,Washington,98837,Cheri  Ward,cward@mlsd161.org,509.766.2699," Public School, Regular School",P,Elementary School,Public
-117.367767887765993,47.65577105682457,2135,2401,47.655777379,-117.367781612,32801,Educational Service District 101,32081,Spokane School District,Libby Center,K,8,2900 E 1St Ave, ,Spokane,Washington,99202-3992,Debra  DeWitt,DebraDe@SpokaneSchools.org,509.354.7500," Public School, Special Education School",S,Middle School,Public
-122.163307448028121,47.496383173839874,2136,5229,47.4963889995,-122.163322,17801,Puget Sound Educational Service District 121,17403,Renton School District,Honey Dew Elementary,K,5,800 Union Ave NE, ,Renton,Washington,98058-4503,Misty  Mbadugha,misty.mbadugha@rentonschools.us,425.204.4800," Public School, Regular School",P,Elementary School,Public
-122.236183060373435,47.485322540769808,2137,5282,47.485328359,-122.236197622,17801,Puget Sound Educational Service District 121,17403,Renton School District,Talley High School,9,12,7800 S 132nd St, ,Seattle,Washington,98178-4804,RONALD D MAHAN,ronald.mahan@rentonschools.us,425.204.2100," Alternative School, Public School",A,High School,Public
-122.337349363920254,47.695100835669408,2138,5292,47.695106655,-122.337363989,17801,Puget Sound Educational Service District 121,17001,Seattle Public Schools,Cascadia Elementary,K,5,1700 N 90th Street, ,Seattle,Washington,98115,Anna E Birinyi,aebirinyi@seattleschools.org,206.252.9540," Public School, Regular School",P,Elementary School,Public
-122.316016470784916,47.604274955042918,2139,3496,47.6042807721,-122.316031072,17801,Puget Sound Educational Service District 121,17001,Seattle Public Schools,Interagency Detention School,6,12,1211 E ALDER  MS 1-F, ,SEATTLE,Washington,98122-5553,Kaaren  Andrews,klandrews@seattleschools.org,206.252.6816, Detention Center,J,Other,Public
-122.362112018465027,47.548610814207514,2140,5276,47.548616623,-122.362126615,17801,Puget Sound Educational Service District 121,17001,Seattle Public Schools,Louisa Boren STEM K-8,PK,8,5950 Delridge Way SW, ,Seattle,Washington,98106-1446,Ben  Ostrom,bostrom@seattleschools.org,206.252.8450," Public School, Regular School",P,Other,Public
-122.326518783737498,47.668279235662311,2141,5203,47.668285055,-122.326533401,17801,Puget Sound Educational Service District 121,17001,Seattle Public Schools,McDonald International School,K,5,144 NE 54th St, ,Seattle,Washington,98105,Michelle  Goldberg,mhsushner@seattleschools.org,206.252.2900," Public School, Regular School",P,Elementary School,Public
-122.322488443673976,47.677154930898787,2142,5204,47.677160751,-122.322503063,17801,Puget Sound Educational Service District 121,17001,Seattle Public Schools,Queen Anne Elementary,K,5,411 Boston St., ,Seattle,Washington,98109,Janine  Roy,jbroy@seattleschools.org,206.252.2480," Public School, Regular School",P,Elementary School,Public
-122.262723390969995,47.673606173762501,2143,5205,47.673612,-122.262738,17801,Puget Sound Educational Service District 121,17001,Seattle Public Schools,Sand Point Elementary,PK,5,6208 60 Ave NE, ,Seattle,Washington,98115-7944,Kristen  Roberts,keroberts@seattleschools.org,206.252.4640," Public School, Regular School",P,Elementary School,Public
-122.361157344333222,47.70603408126459,2144,2977,47.706039899,-122.361171977,17801,Puget Sound Educational Service District 121,17001,Seattle Public Schools,Viewlands Elementary School,PK,5,10525 3 AV NW, ,SEATTLE,Washington,98177-4809,Amy  Klainer,ajklainer@seattleschools.org,206.252.4405," Public School, Regular School",P,Elementary School,Public
-117.533659256053184,47.594670698783737,2145,5294,47.594677,-117.533673,32801,Educational Service District 101,32360,Cheney School District,Phil Snowdon Elementary,PK,5,6323 S Holly Rd, ,Cheney,Washington,99004,Shawna  Fraser,sfraser@cheneysd.org,509-559-4200," Public School, Regular School",P,Elementary School,Public
-119.159574216759779,46.282843716179684,2146,5345,46.282849766,-119.159587988,11801,Educational Service District 123,11001,Pasco School District,Rosalind Franklin STEM Elementary,PK,6,6010 Road 52, ,Pasco,Washington,99301,Deidre  Holmberg,dholmberg@psd1.org,509.416.7114," Public School, Regular School",P,Elementary School,Public
-124.03848866726841,46.310941093514558,2147,2517,46.310946665,-124.038503265,06801,Educational Service District 112,25101,Ocean Beach School District,Hilltop School,5,8,PO Box F, ,Ilwaco,Washington,98624-0256,Mark  Westley,mark.westley@oceanbeachschools.org,360.642.1234," Public School, Regular School",P,Middle School,Public
-122.673594305959483,48.328952551635069,2148,1758,48.328958369,-122.673609135,29801,Northwest Educational Service District 189,15201,Oak Harbor School District,Homeconnection,K,12,350 S. Oak Harbor St., ,Oak Harbor,Washington,98277-0000,Shane  Evans,sevans@ohsd.net,360.279.5057," Alternative School, Public School",A,K-12,Public
-122.175086881675114,47.130762121420176,2149,3399,47.130767926,-122.175101355,17801,Puget Sound Educational Service District 121,27320,Sumner School District,Eismann Elementary,PK,5,13802 Canyon View Blvd. East, ,Bonney Lake,Washington,98391,Susie  Black,susie_black@sumnersd.org,253.891.4500," Public School, Regular School",P,Elementary School,Public
-122.036505534100812,47.648671921095108,2150,5265,47.648677769,-122.036520099,17801,Puget Sound Educational Service District 121,17414,Lake Washington School District,Tesla STEM High School,9,12,4301 228th Ave NE, ,Redmond,Washington,98053-8333,Cindy  Duenas,cduenas@lwsd.org,425.936.2770," Alternative School, Public School",A,High School,Public
-122.579285772876034,45.62728432297466,2151,5310,45.62729,-122.5793,06801,Educational Service District 112,06114,Evergreen School District (Clark),Henrietta Lacks Health and Bioscience High School,9,12,9105 NE 9th Street, ,Vancouver,Washington,98664,Julie  Tumelty,julie.tumelty@evergreenps.org,360.604.4057," Affiliated With District, Public School",P,High School,Public
-117.398231005429082,48.819030600669691,2152,5226,48.819037,-117.398245,32801,Educational Service District 101,26070,Selkirk School District,Selkirk High School,9,12,10372 Highway 31, ,Ione,Washington,99139-9613,Brent  DeRoest,bderoest@selkirkschools.org,509.446.3505," Public School, Regular School",P,High School,Public
-122.386045808877086,45.603234306093718,2153,5309,45.60324,-122.38606,06801,Educational Service District 112,06117,Camas School District,Woodburn Elementary,PK,5,2400 NE Woodburn Dr, ,Camas,Washington,98607,Brian  Graham,brian.graham@camas.wednet.edu,360.833.5860," Affiliated With District, Public School",P,Elementary School,Public
-122.635301019944677,45.733319175451911,2154,5271,45.733324853,-122.635315277,06801,Educational Service District 112,06037,Vancouver School District,Vancouver iTech Preparatory,6,12,PO BOX 8937, ,VANCOUVER,Washington,98668-8937,Darby  Meade,darby.meade@vansd.org,360.313.5200," Public School, Regular School",P,Other,Public
-117.720521986789564,48.167988571915117,2155,5223,48.167994894,-117.720535893,32801,Educational Service District 101,33070,Valley School District,Paideia High School,9,12,3043 Huffman Road, ,Valley,Washington,99181,Matt  Cox,Matthew.Cox@paideiahs.org,509.937.2658," Public School, Regular School",P,High School,Public
-120.632961467184913,46.573883711493117,2156,5221,46.573889637,-120.63297556,39801,Educational Service District 105,39208,West Valley School District (Yakima),West Valley High School Freshman Campus,9,9,9206 Zier Road, ,Yakima,Washington,98908,BEN  MCMURRY,mcmurryb@wvsd208.org,509.972.5600," Public School, Regular School",P,High School,Public
-122.323365433442419,47.441183193436771,2157,5172,47.441189,-122.32338,17801,Puget Sound Educational Service District 121,17401,Highline School District,Puget Sound High School,9,12,18010 8th Ave South, ,Burien,Washington,98148,Todd  Moorhead,Todd.Moorhead@highlineschools.org,206.631.7300," Alternative School, Public School",A,High School,Public
-122.325030434221986,47.437768193810967,2158,5371,47.437774,-122.325045,17801,Puget Sound Educational Service District 121,17401,Highline School District,Highline Home School Center,K,12,18367 8th Avenue South, ,Burien,Washington,98148,Michael  Sita,michael.sita@highlineschools.org,206.631.7665," Alternative School, Public School",A,K-12,Public
-122.980523863480514,46.725439747028716,2159,5359,46.7254454473,-122.980538381,34801,Capital Region ESD 113,21401,Centralia School District,Futurus High School,9,12,906 Johnson Road, ,Centralia,Washington,98531,James RM Bowers,jbowers@centralia.wednet.edu,360-827-6430," Alternative School, Public School",A,High School,Public
-119.16281660427407,46.819387487837908,2160,5367,46.819393574,-119.162830487,11801,Educational Service District 123,01147,Othello School District,Desert Oasis High School,9,12,825 E. Ash St., ,Othello,Washington,99344,Russell  Kovalenko,rkovalenko@othello.wednet.edu,509-488-4534," Alternative School, Public School",A,High School,Public
-118.202882013092122,48.119849729618785,2161,5283,48.1198560002,-118.202896,32801,Educational Service District 101,33206,Columbia (Stevens) School District,Columbia Alternative School,9,12,PO Box 7, ,Hunters,Washington,99137,William  Wadlington,wwadlington@columbia206.net,509.722.3311," Alternative School, Public School",A,High School,Public
-117.487562773619487,47.597034129503001,2162,5269,47.597040436,-117.487576509,32801,Educational Service District 101,32360,Cheney School District,Westwood Middle School,6,8,6120 SOUTH ABBOTT ROAD, ,Spokane,Washington,99224,Ericka  Burden,eburden@cheneysd.org,509.559.4151," Public School, Regular School",P,Middle School,Public
-117.4363812603996,47.665313684129842,2163,3008,47.66532,-117.436395,32801,Educational Service District 101,32081,Spokane School District,Bryant Center,PK,12,N 910 Ash St, ,Spokane,Washington,99201-1811,Suzanne  Smith,SuzanneS@SpokaneSchools.org,509.354.7810," Alternative School, Public School",A,PK-12,Public
-117.40853426875924,47.650162682381385,2164,1603,47.6501689999,-117.408548,32801,Educational Service District 101,32081,Spokane School District,Daybreak Alternative School,8,12,628 S Cowley St, ,Spokane,Washington,99202-2695,David  Crump,DavidCr@SpokaneSchools.org,509.354.7946," Alternative School, Public School",A,High School,Public
-117.427878259973582,47.671635682219879,2165,5301,47.6716420001,-117.427892,32801,Educational Service District 101,32081,Spokane School District,The Community School,9,12,1025 W Spofford Ave, ,Spokane,Washington,99205,Cindy   McMahon,CindyMc@spokaneschools.org,509.354.6404," Public School, Regular School",P,High School,Public
-122.749933138459383,45.904072450335079,2166,5246,45.9040781274,-122.749947448,06801,Educational Service District 112,08404,Woodland School District,Lewis River Academy,K,12,800 Third Street, ,Woodland,Washington,98674,Jake  Hall,hallj@woodlandschools.org,360.841.2725," Alternative School, Public School",A,K-12,Public
-122.957250773306242,46.649249675762121,2167,5369,46.649255374,-122.957265271,34801,Capital Region ESD 113,21302,Chehalis School District,Lewis County Alternative School,6,12,1265 SW Pacific Ave, ,Chehalis,Washington,98532,Tim  Touhey,ttouhey@chehalisschools.org,360.740.3521," Alternative School, Public School",A,Other,Public
-122.485985604928615,46.532054260607048,2168,5415,46.5320599996,-122.486000001,34801,Capital Region ESD 113,21206,Mossyrock School District,Mossyrock Academy,7,12,P O Box 478, ,Mossyrock,Washington,98564,Lori  Cournyer,lcournyer@mossyrockschools.org,360.983.3183," Alternative School, Public School",A,Other,Public
-122.331001304244111,47.581006068248257,2169,5406,47.5810118816,-122.331015903,17801,Puget Sound Educational Service District 121,17001,Seattle Public Schools,Bridges Transition,PK,12,7201 Beacon Ave S, ,Seattle,Washington,98108,Sherry  Studley,srstudley@seattleschools.org,206.252.0842," Public School, Special Education School",S,PK-12,Public
-121.779018511814314,47.493949134571068,2170,5296,47.4939550004,-121.779032999,17801,Puget Sound Educational Service District 121,17410,Snoqualmie Valley School District,Snoqualmie Parent Partnership Program,K,10,400 E 3rd St, ,North Bend,Washington,98045,Rhonda L Schmidt,schmidtr@svsd410.org,425.831.4000," Alternative School, Public School",A,Other,Public
-117.32877221275136,47.646448803557618,2171,1767,47.6464551285,-117.328785928,32801,Educational Service District 101,32081,Spokane School District,The Healing Lodge,8,12,5600 E 8Th Ave, ,Spokane,Washington,99212-0220,Pam  Austin,PamAu@SpokaneSchools.org,509.354.6910, Institution,I,High School,Public
-122.598806180308188,47.168900441055342,2172,5410,47.168906205,-122.598820731,17801,Puget Sound Educational Service District 121,27001,Steilacoom Hist. School District,Futures Program,11,12,511 Chambers Street, ,Steilacoom,Washington,98388,Susanne  Beauchaine,sbeauchaine@steilacoom.k12.wa.us,253.983.2238," Public School, Special Education School",S,High School,Public
-120.331985772326675,47.452464989401591,2173,1742,47.452471,-120.332,04801,North Central Educational Service District 171,04246,Wenatchee School District,Valley Academy Of Learning,K,12,1911 N Wenatchee Ave, ,Wenatchee,Washington,98801-0000,GREG  LOVERCAMP,lovercamp.g@wenatcheeschools.org,509.662.6417," Alternative School, Public School",A,K-12,Public
-122.29276537769519,47.709979175387488,2174,5351,47.709985,-122.29278,17801,Puget Sound Educational Service District 121,17001,Seattle Public Schools,Jane Addams Middle School,6,8,11051 34th Ave. NE, ,Seattle,Washington,98125,Paula Ann Montgomery,plmontgomery@seattleschools.org,206.252.4515," Public School, Regular School",P,Middle School,Public
-119.321619012082749,47.182888904772135,2175,5354,47.182895,-119.321633,04801,North Central Educational Service District 171,13161,Moses Lake School District,Endeavor Middle School,6,8,6527 Patton Blvd, ,Moses Lake,Washington,98837,Scott  West,swest@mlsd161.org,509.766.2667," Public School, Regular School",P,Middle School,Public
-122.380406501931674,47.552608139628603,2176,3518,47.552613947,-122.380421103,17801,Puget Sound Educational Service District 121,17001,Seattle Public Schools,Fairmount Park Elementary School,PK,5,3800 SW FINDLAY ST, ,SEATTLE,Washington,98126-2845,Julie  Breidenbach,jabreidenbach@seattleschools.org,206.252.2800," Public School, Regular School",P,Elementary School,Public
-119.896581001653033,46.741510990681974,2177,4222,46.741517,-119.896595,39801,Educational Service District 105,13073,Wahluke School District,Morris Schott Elementary,K,5,P.O. Box 907, ,Mattawa,Washington,99349-0000,Karl  Edie,kedie@wahluke.net,509.932.3877," Public School, Regular School",P,Elementary School,Public
-118.617216185155698,46.974974848851083,2178,5293,46.974981,-118.61723,32801,Educational Service District 101,01158,Lind School District,Lind-Ritzville Middle School,6,8,PO Box 340, ,Lind,Washington,99341,Cindy  Deska,cdeska@lrschools.org,509.677.3408," Public School, Regular School",P,Middle School,Public
-121.494239667221478,45.74023239463223,2179,5368,45.740238183,-121.494253738,06801,Educational Service District 112,20405,White Salmon Valley School District,Wallace & Priscilla Stevenson Intermediate School,4,6,PO Box 2550, ,White Salmon,Washington,98672,Columba  Jones,columba.jones@whitesalmonschools.org,509.493.4028," Public School, Regular School",P,Elementary School,Public
-119.079986250502287,46.240730945587146,2180,5394,46.240737,-119.08,11801,Educational Service District 123,11001,Pasco School District,Marie Curie STEM Elementary,3,6,715 N California, ,Pasco,Washington,99301,Valerie  Aragon,varagon@psd1.org,509.416.7810," Public School, Regular School",P,Elementary School,Public
-122.171500696340317,47.552187358485291,2181,5308,47.552193187,-122.171515262,17801,Puget Sound Educational Service District 121,17405,Bellevue School District,Jing Mei Elementary School,PK,5,12635 SE 56th Street, ,Bellevue,Washington,98006,Tina   Bogucharova,bogucharovat@bsd405.org,425.456.6900," Public School, Regular School",P,Elementary School,Public
-122.034832463449021,47.526302159142162,2182,5437,47.526308,-122.034847,17801,Puget Sound Educational Service District 121,17411,Issaquah School District,Gibson Ek High School,9,12,379 1st PL SE, ,Issaquah,Washington,98027,Julia  Bamba,bambaj@issaquah.wednet.edu,425.837.6009," Public School, Regular School",P,High School,Public
-119.207987522397545,46.175313064977296,2183,5438,46.175319103,-119.208001281,11801,Educational Service District 123,03017,Kennewick School District,Sage Crest Elementary,K,5,6411 W 38th Ave, ,Kennewick,Washington,99338,Rob   Phillips,rob.phillips@ksd.org,509-222-6500," Public School, Regular School",P,Elementary School,Public
-122.193316383342037,47.366597640935225,2184,5440,47.366603457,-122.193330911,17801,Puget Sound Educational Service District 121,17415,Kent School District,The Outreach Program,12,12,26024 111th Ave SE, ,Kent,Washington,98030-6289,Susan  Whitehall,Susan.Whitehall@kent.k12.wa.us,253.373.4080," Public School, Special Education School",S,High School,Public
-122.108326336992349,48.023851109090771,2185,5441,48.02385697,-122.108341,29801,Northwest Educational Service District 189,31004,Lake Stevens School District,Early Learning Center,PK,PK,9215 29th St NE, ,Lake Stevens,Washington,98258,Matt  Wyant,matt_wyant@lkstevens.wednet.ed,425-335-1643," Preschool, Public School",P,PK Only,Public
-122.06609881356961,48.018777071040574,2186,5442,48.018782936,-122.066113469,29801,Northwest Educational Service District 189,31004,Lake Stevens School District,Outcomes for Academic Resilience,8,12,2202 123rd Ave NE, ,Lake Stevens,Washington,98258,Tina  Vinnick,tina_vinnick@lkstevens.wednet.edu,425-335-1594," Alternative School, Public School",A,High School,Public
-122.90458571365825,46.983184642948601,2187,5445,46.9831903646,-122.904600274,34801,Capital Region ESD 113,23311,Mary M Knight School District,Washington Connections Academy,K,11,111 Tumwater Boulevard SE Suit, ,Tumwater,Washington,98501,Michael   Lunde,mlunde@connectionseducation.com,307-699-0676," Affiliated With District, Public School",P,Other,Public
-117.745862113561273,48.060110687975779,2188,5446,48.0601169996,-117.745876,32801,Educational Service District 101,33207,Mary Walker School District,Mary Walker Promise,K,12,PO Box 159, ,Springdale,Washington,99173,Matt  Cobb,smcisaac@marywalker.org,509.258.4712," Alternative School, Public School",A,K-12,Public
-122.223143420874464,47.573762175882791,2189,5447,47.573768,-122.223158,17801,Puget Sound Educational Service District 121,17400,Mercer Island School District,Northwood Elementary School,K,5,4030 86th Ave SE, ,Mercer Island,Washington,98040,Aimee  Batliner-Gillette,aimee.batliner-gillette@mercerislandschools.org,206-236-4514," Affiliated With District, Public School",P,Elementary School,Public
-122.492379235597156,48.855214545232499,2190,5448,48.8552204078,-122.492394163,29801,Northwest Educational Service District 189,37505,Meridian School District,Meridian Impact Re-Engagement,9,12, , , , , ,Derek  Forbes,dforbes@meridian.wednet.edu,360.318.2280," Public School, Re-Engagement School",R,High School,Public
-122.310111391912969,48.437477704171719,2191,5449,48.4374835663,-122.310126186,29801,Northwest Educational Service District 189,29320,Mount Vernon School District,Mount Vernon Open Doors,10,12,2001 Cleveland Ave, ,Mount Vernon,Washington,98273,Christopher  Jorgensen,cjorgensen@mvsd320.org,360.428.6206," Public School, Re-Engagement School",R,High School,Public
-119.907928566620981,46.256362626873681,2192,5443,46.256368603,-119.907942467,39801,Educational Service District 105,39120,Mabton School District,Mabton Step Up To College,9,12,500 W B St, ,Mabton,Washington,98935,Tyson  Sturza,sturzat@msd120.org,509.894.4951," Public School, Re-Engagement School",R,High School,Public
-122.255435912826769,47.870595986832178,2193,5450,47.870601824,-122.255450565,29801,Northwest Educational Service District 189,31006,Mukilteo School District,Lake Stickney Elementary School,K,5,1625 Madison Way, ,Lynnwood,Washington,98087,Lynn M Olsen,OlsenLM@Mukilteo.wednet.edu,425.366.3600," Public School, Regular School",P,Elementary School,Public
-120.684266868304931,46.723093069643745,2194,5451,46.723099,-120.684281,39801,Educational Service District 105,39003,Naches Valley School District,Naches Valley Elementary School,K,4,151 Bonlow Drive, ,Naches,Washington,98937,Allison  Schnebly,aschnebly@nvsd.org,509.653.1508," Public School, Regular School",P,Elementary School,Public
-122.757410934608018,47.081019424336191,2195,5452,47.081025167,-122.757425493,34801,Capital Region ESD 113,34003,North Thurston Public Schools,Salish Middle School,6,8,8605 Campus Glen Dr NE, ,Lacey,Washington,98516,Karen  Owen,kowen@nthurston.k12.wa.us,360.412.4780," Public School, Regular School",P,Middle School,Public
-124.052310976903698,46.348771744893995,2196,5454,46.348777317,-124.052325584,06801,Educational Service District 112,25101,Ocean Beach School District,Ocean Beach Alternative School,6,12,PO Box 778, ,LONG BEACH,Washington,98631,Amy  Huntley,amy.huntley@oceanbeachschools.org,360.642.1100," Alternative School, Public School",A,Other,Public
-119.288988215236202,46.233547966414676,2197,5419,46.233554,-119.289002,11801,Educational Service District 123,03400,Richland School District,Orchard Elementary,PK,5,1600 Gala Way, ,Richland,Washington,99352,Alysia  Arsanto,Alysia.Arsanto@rsd.edu,509.967.6175," Public School, Regular School",P,Elementary School,Public
-121.881469644477477,47.525334190216213,2198,5457,47.525340047,-121.881484156,17801,Puget Sound Educational Service District 121,17410,Snoqualmie Valley School District,Timber Ridge Elementary School,K,5,34412 SE SWENSON DR, ,SNOQUALMIE,Washington,98065,AMY  WRIGHT,siteadmin@svsd410.org,425-831-3825," Public School, Regular School",P,Elementary School,Public
-122.44138354702109,47.195795073773752,2199,5458,47.195800855,-122.441398078,17801,Puget Sound Educational Service District 121,27010,Tacoma School District,Industrial Design Engineering and Art,9,11,6701 S Park Ave, ,Tacoma,Washington,98444,Zach  Varnell,zvarnel@tacoma.k12.wa.us,253.571.7906," Public School, Regular School",P,High School,Public
-122.484618978930811,47.272704464273296,2200,5459,47.2727102453,-122.484633534,17801,Puget Sound Educational Service District 121,27010,Tacoma School District,Hoyt Early Learning Center,PK,PK,2708 N Union Avenue, ,Tacoma,Washington,98407,Tracye  Ferguson,afergus@tacoma.k12.wa.us,253 571-2620," Preschool, Public School",P,PK Only,Public
-118.307395409420735,46.075770674554889,2201,5460,46.0757767912,-118.307408985,11801,Educational Service District 123,36140,Walla Walla Public Schools,Opportunity Youth Reengagement,11,12,1917 E Isaacs Ave, ,Walla Walla,Washington,99362,Pete  Peterson,tporter@wwps.org,509.526.8660," Public School, Re-Engagement School",R,High School,Public
-120.857297539651441,46.34011232069696,2202,5461,46.3401182092,-120.857311622,32801,Educational Service District 101,33049,Wellpinit School District,Wellpinit Fort Simcoe SEA,9,12,PO Box 390, ,Wellpinit,Washington,99040,Terry  Bartolino,terryb@wellpinit.org,509.258.4535 ext. 2195," Public School, Re-Engagement School",R,High School,Public
-117.304353009896317,47.681009660791524,2203,5462,47.6810159912,-117.304366728,32801,Educational Service District 101,32363,West Valley School District (Spokane),West Valley Early Learning Center,PK,PK,2523 N Park Rd, ,Spokane Valley,Washington,99212,Dan L Andrews,dan.andrews@wvsd.org,509.922.5478," Preschool, Public School",P,PK Only,Public
-122.207938708586923,48.531913131848391,2204,5456,48.5319190091,-122.207953509,29801,Northwest Educational Service District 189,29101,Sedro-Woolley School District,Connections Academy,9,12,24828 Turning Point Court, ,Sedro-Woolley,Washington,98284,Scott  McPhee,smcphee@swsd.k12.wa.us,360-855-3785," Alternative School, Public School",A,High School,Public
-122.59062806497532,47.136530108698494,2205,5364,47.136535871,-122.590642608,17801,Puget Sound Educational Service District 121,27400,Clover Park School District,Meriwether Elementary School,PK,5,10285 Compass Ave, ,JBLM Lewis North,Washington,98433,Leila  Davis,lsdavis@cloverpark.k12.wa.us,253.583.5200," Public School, Regular School",P,Elementary School,Public
-122.603808435487608,47.084291105615712,2206,5365,47.084296864,-122.603822969,17801,Puget Sound Educational Service District 121,27400,Clover Park School District,Rainier Elementary School,PK,5,2410 Stryker Avenue, ,JBLM Lewis Main,Washington,98433,Kylie  Danielson,kdaniels@cloverpark.k12.wa.us,253.583.5220," Public School, Regular School",P,Elementary School,Public
-122.957248952352941,46.139225859300353,2207,5400,46.139231529,-122.957263343,06801,Educational Service District 112,08122,Longview School District,Discovery High School-Achieve,9,12,2742 Harding, ,Longview,Washington,98632,Michael  Kleiner,mkleiner@longview.k12.wa.us,360.414.2926," Public School, Re-Engagement School",R,High School,Public
-122.68451172142224,48.206862260454038,2208,5412,48.2068680698,-122.684526523,29801,Northwest Educational Service District 189,15204,Coupeville School District,Open Den,9,12,501 South Main, ,Coupeville,Washington,98239,Jim  Shank,jshank@coupeville.k12.wa.us,360.678.2404," Public School, Re-Engagement School",R,High School,Public
-117.195408474047937,47.692202901364801,2209,5432,47.6922092434,-117.195422174,32801,Educational Service District 101,32361,East Valley School District (Spokane),EV Online,7,12,3830 N Sullivan Rd Bldg 1, ,Spokane Valley,Washington,99216,Matthew  Stevens,stevensma@evsd.org,509.927.3200," Alternative School, Public School",A,K-12,Public
-117.23846631804453,47.684763609464085,2210,5433,47.6847699465,-117.238480024,32801,Educational Service District 101,32361,East Valley School District (Spokane),EV Parent Partnership,K,12,12325 E Grace Ave, ,Spokane Valley,Washington,99216,Frank  Brou,brouf@evsd.org,509-241-5001," Alternative School, Public School",A,K-12,Public
-122.169985296038774,48.153064138740078,2211,5495,48.1530699996,-122.17,29801,Northwest Educational Service District 189,31016,Arlington School District,Arlington Open Doors,9,12,4407 172nd ST NE, ,Arlington,Washington,98223,William  Nelson,wnelson@asd.wednet.edu,360-618-6340," Public School, Re-Engagement School",R,High School,Public
-122.559985755892939,45.730169315352654,2212,5502,45.7301750002,-122.56,06801,Educational Service District 112,06119,Battle Ground School District,Daybreak Youth Services,6,12,11104 NE 149th St, ,Brush Prairie,Washington,98606,Tom  Adams,adams.tom@battlegroundps.org,360.885.5415," Public School, Regular School",P,Other,Public
-122.355985502091258,47.109787214829247,2213,5471,47.1097929997,-122.356,17801,Puget Sound Educational Service District 121,27403,Bethel School District,Bethel Elementary Learning Academy,K,5,16117 Canyon Road East, ,Puyallup,Washington,98375,Mike   Christianson,mchristian@bethelsd.org,253.683.6711," Public School, Regular School",P,Elementary School,Public
-122.631506268293407,47.622354574747035,2214,5472,47.62236036,-122.631520926,18801,Olympic Educational Service District 114,18401,Central Kitsap School District,Barker Creek Community School,K,12,PO Box 8, ,Silverdale,Washington,98383,Stuart  Crisman,stuartc@ckschools.org,360-662-2575," Alternative School, Public School",A,K-12,Public
-117.084175201014659,47.665568801904797,2215,5507,47.665575153,-117.084188873,32801,Educational Service District 101,32356,Central Valley School District,Liberty Creek Elementary School,K,3,2309 E Country Vista Drive, ,Liberty Lake,Washington,99019,Kim  Kyle,kkyle@cvsd.org,509-558-6302," Public School, Regular School",P,Elementary School,Public
-121.993757253863393,47.2067159744051,2216,5491,47.206721802,-121.993771713,17801,Puget Sound Educational Service District 121,17216,Enumclaw School District,JJ Smith Elementary,PK,PK,1640 Fell Street, ,Enumclaw,Washington,98022,Susan   Arbury,susan_arbury@enumclaw.wednet.edu,360.802.7330," Affiliated With District, Public School",P,PK Only,Public
-119.536985943548117,47.3179499178718,2217,5497,47.3179560003,-119.537,04801,North Central Educational Service District 171,13165,Ephrata School District,Sage Hills Open Doors,10,13,333 4TH AVE NW, ,Ephrata,Washington,98823,Sharon   Scellick,sscellick@ephrataschools.org,509.754.5285," Public School, Re-Engagement School",R,High School,Public
-122.354948459930512,47.297668203953336,2218,5473,47.2976740004,-122.354962999,17801,Puget Sound Educational Service District 121,17210,Federal Way School District,TAFA at Saghalie,6,12,33914 19th Ave SW, ,Federal Way,Washington,98023,Christina  Spencer,chspence@fwps.org,253.945.5000," Public School, Regular School",P,Other,Public
-122.600604254017668,48.860061234625626,2219,5474,48.8600670863,-122.600619201,29801,Northwest Educational Service District 189,37502,Ferndale School District,Ferndale Family Connections,K,10,6041 Vista Dr, ,Ferndale,Washington,98248,Scott  Brittain,scott.brittain@ferndalesd.org,360.383.9215," Alternative School, Public School",A,Other,Public
-122.344870417832666,47.499811192023301,2220,3099,47.4998170002,-122.344885,17801,Puget Sound Educational Service District 121,17401,Highline School District,Evergreen High School,9,12,830 SW 116th St, ,Seattle,Washington,98146-2298,Jacqueline   Downey,jacqueline.downey@highlineschools.org,206.631.6150," Public School, Regular School",P,High School,Public
-122.277046443069437,47.435162188750681,2221,3483,47.435168,-122.277061,17801,Puget Sound Educational Service District 121,17401,Highline School District,Tyee High School,9,12,4424 S 188th St, ,SeaTac,Washington,98188-5097,Timothy  Schlosser,timothy.schlosser@highlineschools.org,206.631.6400," Public School, Regular School",P,High School,Public
-121.28037130948772,45.694062352266073,2222,5503,45.6940681582,-121.280385335,06801,Educational Service District 112,20406,Lyle School District,Student Success Open Doors Academy,9,12,Po Box 368, ,Lyle,Washington,98635,Andrew  Kelly,andrew.kelly@lyleschools.org,509-365-2211," Public School, Re-Engagement School",R,High School,Public
-122.119768080149967,48.074320782268515,2223,5478,48.074326645,-122.119782757,29801,Northwest Educational Service District 189,31025,Marysville School District,Marysville Getchell High School,9,12,8301 84th St. NE, ,Marysville,Washington,98270,Richard   Zimmerman,richard_zimmerman@msd25.org,360.965.2305," Public School, Regular School",P,High School,Public
-121.649707899918738,45.757423225066411,2224,5480,45.757429,-121.649722,06801,Educational Service District 112,30031,Mill A School District,Pacific Crest Innovation Academy,9,12,1142 Jessup rd, ,cook,Washington,98605,Bob  Rogers,info@pacificcrestia.org,509-538-2700," Affiliated With District, Public School",P,High School,Public
-122.248985339641493,47.912759159695234,2225,5498,47.9127649997,-122.249,29801,Northwest Educational Service District 189,31006,Mukilteo School District,Mukilteo Reengagement Academy Open Doors,9,12,9401 Sharon Drive, ,Everett,Washington,98204,Patrick B Hegarty,HegartyPB@mukilteo.wednet.edu,425-356-1293," Public School, Re-Engagement School",R,High School,Public
-122.267354763113616,47.894322318865619,2226,5482,47.8943281557,-122.267369423,29801,Northwest Educational Service District 189,31006,Mukilteo School District,Pathfinder Kindergarten Center,K,K,11401 Beverly Park Road,Building B,Everett,Washington,98204,Cheryl L Boze,BozeCL@mukilteo.wednet.edu,425.366.3800," Public School, Regular School",P,Elementary School,Public
-118.852986204120356,46.674134892999547,2227,5499,46.6741409997,-118.853,11801,Educational Service District 123,11051,North Franklin School District,CRCC-Open Doors,9,12,PO Box 829, ,Connell,Washington,99326, , , ," Public School, Re-Engagement School",R,High School,Public
-122.18164493755522,47.825454633342133,2228,5481,47.825460476,-122.181659567,17801,Puget Sound Educational Service District 121,17417,Northshore School District,North Creek High School,9,12,3613 191st PL SE, ,Bothell,Washington,98012,Eric Thomas McDowell,emcdowell@nsd.org,425-408-8805," Public School, Regular School",P,High School,Public
-122.606985138057823,48.509044166542473,2229,5501,48.50905,-122.607,OSPI,Office of Superintendent of Public Instruction,29801,Northwest Educational Service District 189,Open Doors - Youth Reengagement Program,9,12,1601 R Avenue, ,Anacortes,Washington,982212276,Jodie  DesBiens,jdesbiens@nwesd.org,360.299.4000," Public School, Re-Engagement School",R,High School,Public
-119.098871627809999,46.239821388705238,2230,5483,46.239827441,-119.09888538,11801,Educational Service District 123,11001,Pasco School District,Pasco Early Learning Center,PK,PK,1315 N 7th Ave, ,Pasco,Washington,99301,Kristi  Docken,kdocken@psd1.org,509-543-6700," Preschool, Public School",P,PK Only,Public
-122.184898578003811,47.540615980684564,2231,5484,47.540621807,-122.184913144,17801,Puget Sound Educational Service District 121,17403,Renton School District,Risdon Middle School,6,8,6928 116th Ave SE, ,Newcastle,Washington,98056,Craig  Cooper,craig.cooper@rentonschools.us,425-204-2349," Public School, Regular School",P,Middle School,Public
-122.287196737601548,47.725965188931092,2232,5487,47.725971015,-122.287211362,17801,Puget Sound Educational Service District 121,17001,Seattle Public Schools,Cedar Park Elementary School,PK,5,13224 37th Ave NE, ,Seattle,Washington,98125-4649,Doug  Ouellette,dcouellette@seattleschools.org,206.252.4305," Public School, Regular School",P,Elementary School,Public
-122.282556480747203,47.685556549615818,2233,5488,47.6855623743,-122.282571095,17801,Puget Sound Educational Service District 121,17001,Seattle Public Schools,Decatur Elementary School,K,5,7711 43rd Ave NE, ,Seattle,Washington,98115,Lorien  Geoghagan,LEGEOGHAGAN@SEATTLESCHOOLS.ORG,206-252-3230," Public School, Regular School",P,Elementary School,Public
-122.305327304950552,47.622366612411867,2234,5485,47.622372431,-122.305341909,17801,Puget Sound Educational Service District 121,17001,Seattle Public Schools,Meany Middle School,6,8,301 21st Ave E, ,Seattle,Washington,98112-5318,Chanda  Oatis,ceoatis@seattleschools.org,206-471-2745," Public School, Regular School",P,Middle School,Public
-122.341000225546594,47.695029861541805,2235,5486,47.69503568,-122.341014852,17801,Puget Sound Educational Service District 121,17001,Seattle Public Schools,Robert Eagle Staff Middle School,6,8,1330 N 90th St, ,Seattle,Washington,98103-4016,Marni  Campbell,macampbell@seattleschools.org,206-252-1473," Public School, Regular School",P,Middle School,Public
-122.051306488304846,47.398236167842242,2236,5489,47.3982419997,-122.051321,17801,Puget Sound Educational Service District 121,17409,Tahoma School District,Cedar River Elementary,PK,5,22615 Sweeney Rd SE, ,Maple Valley,Washington,98038,Fritz  Gere,fgere@tahomasd.us,425.413.5401," Public School, Regular School",P,Elementary School,Public
-122.014407492776712,47.407564163287461,2237,5490,47.40757,-122.014422,17801,Puget Sound Educational Service District 121,17409,Tahoma School District,Tahoma Elementary,PK,5,24425 SE 216th ST, ,Maple Valley,Washington,98038,Jerry  Gaston,JGaston@TahomaSD.US,425.413.3601," Public School, Regular School",P,Elementary School,Public
-122.309948754127632,45.576814645191043,2238,5494,45.576820345,-122.309962928,06801,Educational Service District 112,06112,Washougal School District,Columbia River Gorge Elementary School,K,5,35300 SE Evergreen Hwy, ,Washougal,Washington,98671,Tracey  MacLachlan,tracey.maclachlan@washougalsd.org,360.954.3901," Public School, Regular School",P,Elementary School,Public
-120.639301906698165,46.573746075010334,2239,5504,46.5737520002,-120.639316,39801,Educational Service District 105,39208,West Valley School District (Yakima),WEST VALLEY VIRTUAL ACADEMY K-6,K,6,9800 Zier Rd, ,Yakima,Washington,98908,ASHLEY  LIEBERKNECHT,lieberknechta@wvsd208.org,509.972.5907," Public School, Regular School",P,Elementary School,Public
-120.639301906698165,46.573746075010334,2240,5505,46.5737520002,-120.639316,39801,Educational Service District 105,39208,West Valley School District (Yakima),WEST VALLEY VIRTUAL ACADEMY 7-8,7,8,9800 Zier Rd, ,Yakima,Washington,98908,ASHLEY  LIEBERKNECHT,lieberknechta@wvsd208.org,509.972.5900," Public School, Regular School",P,Middle School,Public
-120.639301906698165,46.573746075010334,2241,5506,46.5737520002,-120.639316,39801,Educational Service District 105,39208,West Valley School District (Yakima),WEST VALLEY VIRTUAL ACADEMY 9-12,9,12,9800 Zier Rd, ,Yakima,Washington,98908,ASHLEY  LIEBERKNECHT,lieberknechta@wvsd208.org,509.972.5900," Public School, Regular School",P,High School,Public
-122.181594442914076,47.507972174711796,2242,5313,47.507978,-122.181609,17801,Puget Sound Educational Service District 121,17403,Renton School District,Meadow Crest Early Childhood Education Center,PK,PK,1800 Index Ave NE, ,Renton,Washington,98056-2314,Cindy  Farnsworth,cynthia.farnsworth@rentonschools.us,425.204.2200," Preschool, Public School",P,PK Only,Public
-122.43543348917656,47.109099223006794,2243,5372,47.1091049996,-122.435448001,17801,Puget Sound Educational Service District 121,27403,Bethel School District,Acceleration Academy,9,12,16218 Pacific Ave, ,Spanaway,Washington,98387,Gin  Hooks,ghooks@accelerationacademy.org,253.267.1045," Public School, Re-Engagement School",R,High School,Public
-122.491699467171287,47.16505122543559,2244,5386,47.1650570003,-122.491714,17801,Puget Sound Educational Service District 121,27400,Clover Park School District,Clover Park Early Learning Program,PK,PK,10202 Earley Ave SW, ,Lakewood,Washington,98499,Jennifer  White,jwhite@cloverpark.k12.wa.us,253-583-5360," Preschool, Public School",P,PK Only,Public
-122.506619669919601,47.174937201651943,2245,5387,47.174942975,-122.506634207,17801,Puget Sound Educational Service District 121,27400,Clover Park School District,Four Heroes Elementary,PK,5,9101 Lakewood Dr SW, ,Lakewood,Washington,98499,John  Mitchell,jmitchel@cloverpark.k12.wa.us,253-583-5340," Public School, Regular School",P,Elementary School,Public
-118.970654903084622,47.97196081760989,2246,2802,47.971967,-118.970669,04801,North Central Educational Service District 171,13301,Grand Coulee Dam School District,Lake Roosevelt Elementary,PK,6,503 Crest Dr, ,Coulee Dam,Washington,99116,LISA  LAKIN,llakin@gcdsd.org,509.633.0730," Public School, Regular School",P,Elementary School,Public
-120.016313744277085,47.841413642367449,2247,1940,47.8414197092,-120.016328002,04801,North Central Educational Service District 171,04129,Lake Chelan School District,Chelan School of Innovation,9,12,303 East Johnson Avenue, ,Chelan,Washington,98816-0000,Crosby  Carpenter,carpenterc@chelanschools.org,509.682.4061," Alternative School, Public School",A,High School,Public
-119.169745227501082,46.279271951656085,2248,5391,46.279278,-119.169759,11801,Educational Service District 123,11001,Pasco School District,Barbara McClintock STEM Elementary,PK,6,5706 Road 60, ,Pasco,Washington,99301,Jaime  Morales,jmorales@psd1.org,509.412.7808," Public School, Regular School",P,Elementary School,Public
-123.10600467350892,48.082824274191431,2249,1708,48.082830033,-123.106019515,18801,Olympic Educational Service District 114,05323,Sequim School District,Sequim Community School,PK,12,220 W Alder, ,Sequim,Washington,98382-3356,Randy  Hill,rhill@sequim.k12.wa.us,360.582.3400," Alternative School, Public School",A,PK-12,Public
-122.517655740669355,47.241097132492591,2250,3116,47.2411029084,-122.517670294,17801,Puget Sound Educational Service District 121,27010,Tacoma School District,Wainwright,4,8,130 Alameda Ave, ,Tacoma,Washington,98466-0000,Donna  Basil,dbasil@tacoma.k12.wa.us,253.571.2152," Public School, Regular School",P,Elementary School,Public
-120.480116111566772,46.589251790456508,2251,5355,46.5892577316,-120.480130181,39801,Educational Service District 105,39007,Yakima School District,Yakima Open Doors,9,12,1120 S 18th St,Portable A,Yakima,Washington,98901,Lois  Menard,menard.lois@yakimaschools.org,509.573.5581," Public School, Re-Engagement School",R,High School,Public
-122.560754141906642,45.730359691918665,2252,5360,45.7303653767,-122.560768387,06801,Educational Service District 112,06119,Battle Ground School District,Open Doors Battle Ground,9,12,PO Box 200, ,Battle Ground,Washington,98604,Tom  Adams,adams.tom@battlegroundps.org,360.885.5415," Public School, Re-Engagement School",R,High School,Public
-122.178685242519862,47.610704316620357,2253,5281,47.6107101482,-122.178699823,17801,Puget Sound Educational Service District 121,17405,Bellevue School District,Central Educational Services,PK,13,P.O. Box 90010, ,Bellevue,Washington,98009-9010,Glenn  Hasslinger,hasslingerg@bsd405.org,425.456.4200," Affiliated With District, Public School",P,PK-12,Public
-122.178685242519862,47.610704316620357,2254,5325,47.6107101482,-122.178699823,17801,Puget Sound Educational Service District 121,17405,Bellevue School District,Grad Alliance Program,10,12,12111 NE 1ST STREET, ,BELLEVUE,Washington,98005,Joseph  Kempisty,kempistyj@bsd405.org,425.456.4175," Public School, Re-Engagement School",R,High School,Public
-122.486894585841114,48.759273969559587,2255,5340,48.7592798288,-122.486909488,29801,Northwest Educational Service District 189,37501,Bellingham School District,Bellingham Re-Engagement Program,9,12,1306 Dupont St, ,Bellingham,Washington,98225, , , ," Public School, Re-Engagement School",R,High School,Public
-122.736953741786962,48.993756281658356,2256,5465,48.9937621254,-122.736968744,29801,Northwest Educational Service District 189,37503,Blaine School District,Blaine Re-Engagement,10,12,Blaine School District,1055 H Street,Blaine,Washington,98230,Scott  Ellis,Scott_Ellis@blainesd.org,360.332.6045," Contract School, Public School, Re-Engagement School",R,High School,Public
-122.661916589810701,47.564928324667392,2257,5395,47.5649341025,-122.661931239,18801,Olympic Educational Service District 114,18100,Bremerton School District,Career & Academic Re-engagement Center,10,12,134 Marion Ave N, ,Bremerton,Washington,98312,Kristen  Morga,kristen.morga@bremertonschools.org,360.473.4700," Affiliated With District, Public School",P,High School,Public
-119.783342958118467,48.099373204083527,2258,5272,48.0993793107,-119.783357233,04801,North Central Educational Service District 171,24111,Brewster School District,Brewster Alternative School,9,12,P.O. Box 97, ,Brewster,Washington,98812,Linda  Dezellem,rphillips@brewster.wednet.edu,509-689-3449," Alternative School, Public School",A,High School,Public
-117.1938573099293,47.648986661340174,2259,5328,47.648993,-117.193871,32801,Educational Service District 101,32356,Central Valley School District,CVSD Open Doors Programs,10,13,19307 E Cataldo Ave, ,Spokane Valley,Washington,99016-9489,Kent  Martin,kentmartin@cvsd.org,509.558.5430," Public School, Re-Engagement School",R,High School,Public
-117.57566985437748,47.498060756453171,2260,5396,47.4980670472,-117.575683585,32801,Educational Service District 101,32360,Cheney School District,Cheney Open Doors,7,12,460 N. 6th St., ,Cheney,Washington,99004,Troy  Heuett,theuett@cheneysd.org,509-559-4001," Public School, Re-Engagement School",R,Other,Public
-122.777851227974622,48.011916209922951,2261,5397,48.011922,-122.777866,18801,Olympic Educational Service District 114,16049,Chimacum School District,Open Doors Reengagement Program,9,12,PO Box 278, ,Chimacum,Washington,98325,Brian  MacKenzie,brian_mackenzie@csd49.org,360.302.5905," Public School, Re-Engagement School",R,High School,Public
-122.520272463549119,47.157776191822371,2262,5411,47.157781963,-122.520287,17801,Puget Sound Educational Service District 121,27400,Clover Park School District,CPSD Open Doors Program,9,12,11023 Gravelly Lake Dr SW, ,Lakewood,Washington,98499,Venetia  Willis-Holbrook,vwillish@cloverpark.k12.wa.us,253.583.5525," Public School, Re-Engagement School",R,High School,Public
-122.520359730324415,47.158120491402663,2263,5297,47.1581262617,-122.520374266,17801,Puget Sound Educational Service District 121,27400,Clover Park School District,Transition Day Students,5,12,10903 Gravelly Lake DR SW,C/O Ann Almlie,Lakewood,Washington,98499,Carolyn   Watkins,cwatkins@cloverpark.k12.wa.us,253.756.2522," Public School, Regular School",P,Other,Public
-122.268436625305341,46.870703236592718,2264,5332,46.8707090166,-122.268451057,17801,Puget Sound Educational Service District 121,27404,Eatonville School District,New Beginnings,9,12,P.O. Box 698, ,Eatonville,Washington,98328, , , ," Public School, Re-Engagement School",R,High School,Public
-122.326109058522192,47.813560976488922,2265,1830,47.8135668034,-122.326123709,29801,Northwest Educational Service District 189,31015,Edmonds School District,Contracted Schools,4,12,20420 68TH AVE W, ,LYNNWOOD,Washington,98036-7400,Jean  Mirabal,mirabalj@edmonds.wednet.edu,425.431.7186," Public School, Special Education School",S,Other,Public
-122.326961348470618,47.816141172761043,2266,5358,47.8161469996,-122.326976,29801,Northwest Educational Service District 189,31015,Edmonds School District,Edmonds Career Access Program,9,12,20420 68th Ave W, ,Lynnwood,Washington,98036,Mark  Madison,madisonm@edmonds.wednet.edu,425-431-7124," Public School, Re-Engagement School",R,High School,Public
-123.409384185300397,47.002617355158023,2267,5416,47.0026230266,-123.409398831,34801,Capital Region ESD 113,14068,Elma School District,East Grays Harbor Open Doors,9,12,705 W Waldrip, ,Elma,Washington,98541,Julie  Crawford,jcrawford@eagles.edu,360.482.5086," Public School, Re-Engagement School",R,High School,Public
-122.201842434375692,47.965161174623219,2268,5330,47.9651670231,-122.201857099,29801,Northwest Educational Service District 189,31002,Everett School District,Everett Reengagement Academy,9,12,PO Box 2098, ,Everett,Washington,98213-2999,Jeanne  Willard,jwillard@everettsd.org,425.385.4078," Public School, Re-Engagement School",R,High School,Public
-122.532942301868772,45.639943458159721,2269,5435,45.63994914,-122.532956525,06801,Educational Service District 112,06114,Evergreen School District (Clark),Open Doors Evergreen,9,12,2205 NE 138th Ave, ,Vancouver,Washington,98682,Stephen  Getsinger,Stephen.Getsinger@evergreenps.org,360.604.4095," Public School, Re-Engagement School",R,High School,Public
-122.3246364135112,47.304897961951653,2270,5255,47.3049037613,-122.324650949,17801,Puget Sound Educational Service District 121,17210,Federal Way School District,Gateway to College,9,12,33330 8th Ave S, ,Federal Way,Washington,98003,Sammy  Anderson,samander@fwps.org,253.945.2000," Affiliated With District, Contract School, Public School",Z,High School,Public
-122.299031378443701,47.319296072475822,2271,5348,47.319301875,-122.299045914,17801,Puget Sound Educational Service District 121,17210,Federal Way School District,Open Doors Youth Reengagement (1418),9,12,31455 28th Ave S, ,Federal Way,Washington,98003,Ashley  Barker,abarker@fwps.org,253.945.4590," Public School, Re-Engagement School",R,High School,Public
-122.600606880647305,48.860057422058524,2272,5464,48.8600632737,-122.600621827,29801,Northwest Educational Service District 189,37502,Ferndale School District,FERNDALE RE-ENGAGEMENT,9,12,6041 VISTA DRIVE, ,FERNDALE,Washington,98248,Scott  Brittain,scott.brittain@ferndalesd.org,360.383.9210," Public School, Re-Engagement School",R,High School,Public
-121.963370949849278,48.084975708594087,2273,5349,48.084981588,-121.963385603,29801,Northwest Educational Service District 189,31332,Granite Falls School District,Granite Falls Open Doors,9,12,205 N Alder Ave, ,Granite Falls,Washington,98252,Bridgette  McVay,bmcvay@gfalls.wednet.edu,360.691.4407," Public School, Re-Engagement School",R,High School,Public
-122.342693816256443,47.495932737512447,2274,5370,47.4959385451,-122.342708398,17801,Puget Sound Educational Service District 121,17401,Highline School District,Highline Open Doors 1418,9,12,614 SW 120th Street, ,Burien,Washington,98146,Michael  Sita,michael.sita@highlineschools.org,206.631.7750," Public School, Re-Engagement School",R,High School,Public
-122.656718300376596,45.864738681927463,2275,5326,45.8647443645,-122.656732587,06801,Educational Service District 112,06101,La Center School District,La Center Home School Academy,K,12,PO Box 1840, ,La Center,Washington,98629,Carol  Patton,carol.patton@lacenterschools.org,360.263.1700," Alternative School, Public School",A,K-12,Public
-122.176659672650572,48.054719524556504,2276,5404,48.0547253795,-122.176674355,29801,Northwest Educational Service District 189,31306,Lakewood School District,Lakewood NWESD 189 Open Door Program,9,12,1605 7th St, ,Marysville,Washington,98270,Jodie  DesBiens,wthomas@nwesd.org,360 299-4066," Public School, Re-Engagement School",R,High School,Public
-117.375701096195598,47.773291244657408,2277,5401,47.7732975736,-117.375714848,32801,Educational Service District 101,32354,Mead School District,Mead Open Doors,11,12,2323 E Farwell Rd, ,Mead,Washington,99021,Ken   Russell,ken.russell@mead354.org,509.465.6040," Contract School, Re-Engagement School",R,High School,Public
-117.393055054518967,47.757728224873851,2278,5268,47.757734552,-117.393068806,32801,Educational Service District 101,32354,Mead School District,Riverpoint Academy,9,12,11008 N. Newport Hwy, ,Spokane,Washington,99218,Moleena  Harris,moleena.harris@mead354.org,509.465.7900," Affiliated With District, Public School",P,High School,Public
-119.273399124642665,47.12938142240418,2279,5323,47.1293875191,-119.273413093,04801,North Central Educational Service District 171,13161,Moses Lake School District,Skill Source Learning Center,9,13,309 E. 5th Ave., ,Moses Lake,Washington,98837,Yolanda  Rios,yolanda@skillsource.org,509.766.6300," Public School, Re-Engagement School",R,High School,Public
-117.042119961459463,48.177393440156919,2280,5118,48.1773998316,-117.042133739,32801,Educational Service District 101,26056,Newport School District,Pend Oreille River School,8,12,P. O. Box 70, ,Newport,Washington,99156,Troy  Whittle,whittletroy@newport.wednet.edu,509.447.2481 ext.3502," Alternative School, Public School",A,High School,Public
-122.189979990436811,47.77701545239843,2281,5331,47.7770212912,-122.18999461,17801,Puget Sound Educational Service District 121,17417,Northshore School District,Northshore Online School,9,12,3330 Monte Villa Parkway, ,Bothell,Washington,98021-8972,Donna  Tyo,dtyo@nsd.org,425-408-6605," Public School, Re-Engagement School",R,High School,Public
-122.358905390891337,47.646269414313011,2282,1751,47.6462752285,-122.358920009,17801,Puget Sound Educational Service District 121,17001,Seattle Public Schools,Cascade Parent Partnership Program,K,12,2919 1st Avenue West, ,SEATTLE,Washington,98119,Owen  Gonder,oigonder@seattleschools.org,206.252.4720," Alternative School, Public School",A,K-12,Public
-122.287491470742779,47.558214970289569,2283,5405,47.5582207874,-122.287506057,17801,Puget Sound Educational Service District 121,17001,Seattle Public Schools,Interagency Open Doors,9,12,3528 S. Ferdinand Street, ,Seattle,Washington,98118,Kaaren Linn Andrews,klandrews@seattleschools.org,206.743.3930," Public School, Re-Engagement School",R,High School,Public
-121.828500676684868,47.528692554354159,2284,5374,47.5286984175,-121.828515179,17801,Puget Sound Educational Service District 121,17410,Snoqualmie Valley School District,SVSD OPEN DOORS,9,12,8001 SILVA AVE SE, ,SNOQUALMIE,Washington,98065,Deborah   O'Brien,deborah.obrien@graduationalliance.com,509.570.4619," Contract School, Re-Engagement School",R,High School,Public
-123.791687367286116,46.662047384949432,2285,5243,46.662053,-123.791702,34801,Capital Region ESD 113,25118,South Bend School District,Pacific Virtual Learning,K,12,PO Box 437, ,South Bend,Washington,98586,Jon  Tienhaara,jtienhaa@southbendschools.org,360.875.6041," Alternative School, Public School",A,K-12,Public
-117.417732449872958,47.674355656587309,2286,1533,47.6743619748,-117.417746188,32801,Educational Service District 101,32081,Spokane School District,A-3 Multiagency Adolescent Prog,9,12,1807 N. Washington, ,Spokane,Washington,99205,David  Crump,DavidCr@spokaneschools.org,458-7458, Institution,I,High School,Public
-117.454403714060817,47.67685378776617,2287,1604,47.6768601026,-117.45441746,32801,Educational Service District 101,32081,Spokane School District,Alternative Tamarack School,7,12,W 2901 Ft George Wright, ,Spokane,Washington,99224-5253,David  Crump,DavidCr@spokaneschools.org,509.326.8100, Institution,I,Other,Public
-117.467140254586667,47.724012524241424,2288,3819,47.724018841,-117.467154014,32801,Educational Service District 101,32081,Spokane School District,Excelsior Youth Center School,7,12,3754 W Indian Trail Rd, ,Spokane,Washington,99208-4736,Carol  Stines,Carol.Stines@4eyc.org,509.328.7041, Institution,I,Other,Public
-117.368692714365267,47.696413342848068,2289,5250,47.6964196684,-117.368706448,32801,Educational Service District 101,32081,Spokane School District,On Track Academy,7,12,2802 E. Rich, ,Spokane,Washington,99207,Lisa Jean Mattson,lisamat@spokaneschools.org,509.354.3863," Public School, Regular School",P,High School,Public
-117.415621638053224,47.659391837195137,2290,5344,47.6593981548,-117.415635373,32801,Educational Service District 101,32081,Spokane School District,Open Doors Youth Re-Engagement Spokane,9,12,200 N. Bernard, ,Spokane,Washington,99201,Larry  Gardner,lgardner@esd101.net,509-477-2451," Public School, Re-Engagement School",R,High School,Public
-117.35864896290613,47.67457196225034,2291,1698,47.6745782873,-117.35866269,32801,Educational Service District 101,32081,Spokane School District,SCCP Images,12,12,1810 N Greene St, ,Spokane,Washington,99217-5399,David  Crump,DavidCr@spokaneschools.org,509.533.7326," Alternative School, Public School",A,High School,Public
-122.523173552220712,47.245379277421513,2292,5307,47.2453850527,-122.523188108,17801,Puget Sound Educational Service District 121,27010,Tacoma School District,Fresh Start,9,12,601 S 8th Street, ,Tacoma,Washington,98405,Gregory  Eisnaugle,geisnau@tacoma.k12.wa.us,253.572.6661," Public School, Re-Engagement School",R,High School,Public
-117.283464789246722,47.68257108823785,2293,5356,47.682577421,-117.283478503,32801,Educational Service District 101,32363,West Valley School District (Spokane),re-engagement,9,12,2805 N Argonne, ,Spokane,Washington,99212,Jean C Marczynski,jean.marczynski@wvsd.org,509.924.2150," Public School, Re-Engagement School",R,High School,Public
