School_Code,School_Name,School_Teaches_Computer_Science,Total_Computer_Science_Courses_Taught,Yearly_Enrolled_in_Computer_Science,X,Y,FID,Latitude,Longitude,ESDCode,ESDName,LEACode,LEAName,SchoolName_y,Lowest_Grade,Highest_Grade,Address_Line_1,Address_Line_2,City,State,Zip_Code_Long,Principal_Name,Email,Phone,Org_Category,AYPCode,GradeCateg,Org_Category_2,Zip_Code,CountyID,County_Name
1519,Edmonds Elearning Academy,Teaches Computer Science,1.0,1.0,-122.33467830000001,47.81065455,809,47.81066037,-122.33469299999999,29801,Northwest Educational Service District 189,31015,Edmonds School District,Edmonds Elearning Academy,9,12,7501 208th St SW, ,Lynnwood,Washington,98036-7400,Katie  Bjornstad,bjornstadk@edmonds.wednet.edu,425.431.1528," Alternative School, Public School",A,High School,Public,98036,53061,Snohomish County
1547,Middle College High School,Teaches Computer Science,4.0,58.0,-122.3258749,47.70652538,1579,47.7065312,-122.3258895,17801,Puget Sound Educational Service District 121,17001,Seattle Public Schools,Middle College High School,9,12,401 NE Northgate Way,#203,Seattle,Washington,98125,Elizabeth  Mcfarland,emmcfarland@seattleschools.org,206.252.9905," Public School, Regular School",P,High School,Public,98125,53033,King County
1627,Yelm Extension School,Teaches Computer Science,2.0,3.0,-122.60573149999999,46.94246125,1302,46.942467,-122.605746,34801,Capital Region ESD 113,34002,Yelm School District,Yelm Extension School,9,12,PO Box 476, ,Yelm,Washington,98597-0476,Ryan  Akiyama,ryan_akiyama@ycs.wednet.edu,360.458.7777," Alternative School, Public School",A,High School,Public,98597,53067,Thurston County
1628,Dishman Hills High School,Teaches Computer Science,6.0,158.0,-117.2602256,47.65557818,707,47.65558451,-117.2602393,32801,Educational Service District 101,32363,West Valley School District (Spokane),Dishman Hills High School,9,12,115 S University,Suite A,Spokane,Washington,99206-0000,Lauren  House,lauren.house@wvsd.org,509.927.1100," Alternative School, Public School",A,High School,Public,99206,53063,Spokane County
1640,Puyallup Online Academy/Poa,Teaches Computer Science,2.0,6.0,-122.3019547,47.16066761,1552,47.1606734,-122.3019692,17801,Puget Sound Educational Service District 121,27003,Puyallup School District,Puyallup Online Academy/Poa,K,12,716 South Hill Park Drive,Suite B,Puyallup,Washington,98373,Adriana  Julian,juliaac@puyallup.k12.wa.us,253.841.8630," Alternative School, Public School",A,K-12,Public,98373,53053,Pierce County
1657,Heritage School,Teaches Computer Science,4.0,54.0,-122.19912930000001,48.0617346,1044,48.06174045,-122.19914399999999,29801,Northwest Educational Service District 189,31025,Marysville School District,Heritage School,9,12,7204 27th Ave NE, ,Marysville,Washington,98271,Shelly  Lacy,shelly_lacy@msd25.org,306.965.2800," Public School, Regular School",P,High School,Public,98271,53061,Snohomish County
1680,James A. Taylor High School,Teaches Computer Science,2.0,2.0,-122.8414758,47.41684620000001,1512,47.41685196,-122.8414905,18801,Olympic Educational Service District 114,23403,North Mason School District,James A. Taylor High School,9,12,90 E North Mason School Road, ,Belfair,Washington,98528-0000,Anne  Crosby,acrosby@northmasonschools.org,360.277.2393," Alternative School, Public School",A,High School,Public,98528,53045,Mason County
1688,Emerson K-12,Teaches Computer Science,4.0,4.0,-122.19569950000002,47.65466851,1455,47.65467434,-122.19571409999999,17801,Puget Sound Educational Service District 121,17414,Lake Washington School District,Emerson K-12,K,12,10903 NE 53rd Street, ,Kirkland,Washington,98033-7508,Nell  Ballard-Jones,nballard-jones@lwsd.org,425.936.2311," Alternative School, Public School",A,K-12,Public,98033,53033,King County
1718,Explorer Academy,Teaches Computer Science,6.0,15.0,-122.62710420000002,47.52501448,1599,47.52502026,-122.6271189,18801,Olympic Educational Service District 114,18402,South Kitsap School District,Explorer Academy,K,12,1962 HOOVER AVE SE, ,Port Orchard,Washington,98366-0000,Pat  Oster,oster@skschools.org,360.443.3605," Alternative School, Public School",A,K-12,Public,98366,53035,Kitsap County
1854,Parade,Teaches Computer Science,1.0,4.0,-121.9078605,47.65221114,1572,47.652217,-121.907875,17801,Puget Sound Educational Service District 121,17407,Riverview School District,Parade,PK,12,32302 NE 50th St, ,Carnation,Washington,98014-6332,John  Bomar,bomarj@rsd407.org,425.844.4960," Alternative School, Public School",A,PK-12,Public,98014,53033,King County
1875,Homelink River,Teaches Computer Science,7.0,22.0,-122.5448398,45.76705731,1322,45.767063,-122.544854,6801,Educational Service District 112,6119,Battle Ground School District,Homelink River,K,12,PO Box 200, ,Battle Ground,Washington,98604-0200,Mark  Clements,clements.mark@battlegroundps.org,360.334.8205," Alternative School, Public School",A,K-12,Public,98604,53011,Clark County
1892,Oasis K-12,Teaches Computer Science,1.0,1.0,-122.90381599999999,48.69852175,1531,48.69852756,-122.90383090000002,29801,Northwest Educational Service District 189,28137,Orcas Island School District,Oasis K-12,K,12,557 SCHOOL RD, ,Eastsound,Washington,98245-0000,Becky  Bell,bbell@orcas.k12.wa.us,360.376.2284," Alternative School, Public School",A,K-12,Public,98245,53055,San Juan County
1919,Independent Scholar,Teaches Computer Science,1.0,1.0,-117.35092879999999,47.96932418,1569,47.96933052,-117.3509426,32801,Educational Service District 101,32416,Riverside School District,Independent Scholar,K,12,34515 N. Newport Highway, ,Chattaroy,Washington,99003-9734,Lynn  Rowse,lynn.rowse@rsdmail.org,509.464.8478," Alternative School, Public School",A,K-12,Public,99003,53063,Spokane County
1927,Marysville Mountain View Arts And Technology High School,Teaches Computer Science,4.0,90.0,-122.19837340000002,48.06267815,1475,48.062684000000004,-122.1983881,29801,Northwest Educational Service District 189,31025,Marysville School District,Marysville Mountain View Arts And Technology High School,9,12,7204 27th Ave NE, ,Marysville,Washington,98271,Raymond  Houser,raymond_houser@msd25.org,360.965.3000," Public School, Regular School",P,High School,Public,98271,53061,Snohomish County
1938,Student Link,Teaches Computer Science,1.0,1.0,-122.45726540000001,47.42322821,2092,47.423234,-122.45728000000001,17801,Puget Sound Educational Service District 121,17402,Vashon Island School District,Student Link,9,12,9600 SW 204th St, ,Vashon,Washington,98070,Danny  Rock,drock@vashonsd.org,206.463.9171," Alternative School, Public School",A,High School,Public,98070,53033,King County
1971,Sage Hills High School,Teaches Computer Science,1.0,3.0,-119.537549,47.317399,2001,47.317399,-119.537549,4801,North Central Educational Service District 171,13165,Ephrata School District,Sage Hills High School,8,12,35 K ST SE,,Ephrata,Washington,98823-0000,Frank  Cardwell,fcardwell@ephrataschools.org,(509)754-7547," Alternative School, Public School",A,High School,Public,98823,53025,Grant County
1992,Skagit Academy,Teaches Computer Science,1.0,4.0,-122.34006200000002,48.40410434,1498,48.4041102,-122.34007679999999,29801,Northwest Educational Service District 189,29320,Mount Vernon School District,Skagit Academy,K,12,2001 Cleveland Ave, ,Mount Vernon,Washington,98273,Chris  Jorgensen,cjorgensen@mvsd320.org,360.428.6206," Alternative School, Public School",A,K-12,Public,98273,53057,Skagit County
2031,Omak High School,Teaches Computer Science,2.0,37.0,-119.5343047,48.40935585,1527,48.409362,-119.534319,4801,North Central Educational Service District 171,24019,Omak School District,Omak High School,9,12,P O BOX 833, ,Omak,Washington,98841-0833,Guin  Joyce,gjoyce@omaksd.org,509.826.7697," Public School, Regular School",P,High School,Public,98841,53047,Okanogan County
2084,Stadium,Teaches Computer Science,6.0,114.0,-122.4480745,47.26614422,264,47.26615,-122.448089,17801,Puget Sound Educational Service District 121,27010,Tacoma School District,Stadium,9,12,111 N E St, ,Tacoma,Washington,98403-0000,Kevin  Ikeda,kikeda@tacoma.k12.wa.us,253.571.3100," Public School, Regular School",P,High School,Public,98403,53053,Pierce County
2125,Puyallup High School,Teaches Computer Science,4.0,106.0,-122.3018895,47.1912222,62,47.191228,-122.30190400000001,17801,Puget Sound Educational Service District 121,27003,Puyallup School District,Puyallup High School,10,12,105 Seventh St SW, ,Puyallup,Washington,98371-5333,Dave  Sunich,sunichdm@puyallup.k12.wa.us,253.604.3709," Public School, Regular School",P,High School,Public,98371,53053,Pierce County
2126,Everett High School,Teaches Computer Science,8.0,298.0,-122.20923329999998,47.98527615,851,47.985282,-122.209248,29801,Northwest Educational Service District 189,31002,Everett School District,Everett High School,9,12,2416 Colby Ave., ,Everett,Washington,98201-2993,Lance  Balla,lballa@everettsd.org,425.385.4400," Public School, Regular School",P,High School,Public,98201,53061,Snohomish County
2132,Ritzville High School,Teaches Computer Science,2.0,2.0,-118.36840420000001,47.12612781,100,47.126134,-118.36841799999999,32801,Educational Service District 101,1160,Ritzville School District,Ritzville High School,9,12,209 E Wellsandt Avenue, ,Ritzville,Washington,99169-1674,Ronanda   Liberty,rliberty@lrschools.org,509.659.1720," Public School, Regular School",P,High School,Public,99169,53001,Adams County
2134,Wenatchee High School,Teaches Computer Science,2.0,2.0,-120.32674479999999,47.41014299,1227,47.410149,-120.32675900000001,4801,North Central Educational Service District 171,4246,Wenatchee School District,Wenatchee High School,9,12,1101 MILLERDALE AVE, ,Wenatchee,Washington,98801-0000,Eric J Anderson,anderson.eric@wenatcheeschools.org,509.663.8117," Public School, Regular School",P,High School,Public,98801,53007,Chelan County
2150,Sedro Woolley Senior High School,Teaches Computer Science,13.0,285.0,-122.2366902,48.50025413,172,48.50026,-122.236705,29801,Northwest Educational Service District 189,29101,Sedro-Woolley School District,Sedro Woolley Senior High School,9,12,1235 Third Street, ,Sedro-Woolley,Washington,98284-0000,Kerri  Carlton,kcarlton@swsd.k12.wa.us,360.855.3510," Public School, Regular School",P,High School,Public,98284,53057,Skagit County
2166,Centralia High School,Teaches Computer Science,2.0,17.0,-123.0016645,46.7265813,630,46.726587,-123.00167900000001,34801,Capital Region ESD 113,21401,Centralia School District,Centralia High School,9,12,813 Eshom Road, ,Centralia,Washington,98531-1515,Josue  Lowe,jlowe@centralia.wednet.edu,360.330.7605," Public School, Regular School",P,High School,Public,98531,53041,Lewis County
2172,Lewis & Clark High School,Teaches Computer Science,12.0,496.0,-117.42018829999999,47.65192268,1640,47.651928999999996,-117.420202,32801,Educational Service District 101,32081,Spokane School District,Lewis & Clark High School,9,12,521 W 4Th Ave, ,Spokane,Washington,99204-2692,Marybeth  Smith,marybethsm@spokaneschools.org,509.354.7000," Public School, Regular School",P,High School,Public,99204,53063,Spokane County
2179,Fort Vancouver High School,Teaches Computer Science,1.0,20.0,-122.61274180000001,45.63663333,902,45.636639,-122.612756,6801,Educational Service District 112,6037,Vancouver School District,Fort Vancouver High School,9,12,5700 E 18TH ST, ,Vancouver,Washington,98661-6898,Jeaudelle R Videlco,jody.videlco@vansd.org,360.313.4000," Public School, Regular School",P,High School,Public,98661,53011,Clark County
2182,Franklin High School,Teaches Computer Science,8.0,142.0,-122.2928054,47.57606618,914,47.576071999999996,-122.29281999999999,17801,Puget Sound Educational Service District 121,17001,Seattle Public Schools,Franklin High School,9,12,3013 S MT BAKER BV, ,Seattle,Washington,98144-6139,Jennifer  Wiley,jwiley@seattleschools.org,206.252.6150," Public School, Regular School",P,High School,Public,98144,53033,King County
2206,Eatonville High School,Teaches Computer Science,9.0,166.0,-122.2667746,46.87172222,799,46.871728000000004,-122.26678899999999,17801,Puget Sound Educational Service District 121,27404,Eatonville School District,Eatonville High School,9,12,PO Box 699, ,Eatonville,Washington,98328-0699,Amy  Sturdivant,a.sturdivant@eatonville.wednet.edu,360.879.1200," Public School, Regular School",P,High School,Public,98328,53053,Pierce County
2215,Lincoln,Teaches Computer Science,8.0,330.0,-122.4412785,47.22520922,1659,47.225215000000006,-122.44129299999999,17801,Puget Sound Educational Service District 121,27010,Tacoma School District,Lincoln,9,12,701 S 37th St, ,Tacoma,Washington,98418-0000,Pat  Erwin,perwin@tacoma.k12.wa.us,253.571.6700," Public School, Regular School",P,High School,Public,98418,53053,Pierce County
2220,Ballard High School,Teaches Computer Science,14.0,500.0,-122.37529640000001,47.67668419,478,47.67669,-122.37531100000001,17801,Puget Sound Educational Service District 121,17001,Seattle Public Schools,Ballard High School,9,12,1418 NW 65 ST, ,Seattle,Washington,98117-5237,Keven  Wynkoop,kswynkoop@seattleschools.org,206.252.1000," Public School, Regular School",P,High School,Public,98117,53033,King County
2233,Mansfield Elem And High School,Teaches Computer Science,1.0,5.0,-119.64372279999999,47.8165749,1715,47.816581,-119.64373700000002,4801,North Central Educational Service District 171,9207,Mansfield School District,Mansfield Elem And High School,PK,12,P.O. BOX 188, ,Mansfield,Washington,98830-0000,Shane  Bird,sbird@mansfield.wednet.edu,509.683.1012," Public School, Regular School",P,K-12,Public,98830,53017,Douglas County
2234,West Seattle High School,Teaches Computer Science,12.0,182.0,-122.38460740000001,47.57691419,1232,47.57692,-122.384622,17801,Puget Sound Educational Service District 121,17001,Seattle Public Schools,West Seattle High School,9,12,3000 CALIFORNIA AV SW, ,Seattle,Washington,98116-3302,Brian  Vance,brvance@seattleschools.org,206.252.8805," Public School, Regular School",P,High School,Public,98116,53033,King County
2246,Okanogan High School,Teaches Computer Science,2.0,16.0,-119.5854267,48.36481234,1933,48.36481849,-119.58544099999999,4801,North Central Educational Service District 171,24105,Okanogan School District,Okanogan High School,9,12,PO Box 592, ,Okanogan,Washington,98840-0592,Bob D Shacklett,bshacklett@oksd.wednet.edu,509.422.3770," Public School, Regular School",P,High School,Public,98840,53047,Okanogan County
2266,Kelso High School,Teaches Computer Science,3.0,58.0,-122.8922976,46.14359132,1155,46.143597,-122.89231200000002,6801,Educational Service District 112,8458,Kelso School District,Kelso High School,9,12,1904 Allen St, ,Kelso,Washington,98626-0000,Christine Marie Mcdaniel,christine.mcdaniel@kelsosd.org,360.501.1827," Public School, Regular School",P,High School,Public,98626,53015,Cowlitz County
2270,Puget Sound Skills Center,Teaches Computer Science,1.0,10.0,-122.3230604,47.44122119,2307,47.441227000000005,-122.323075,17801,Puget Sound Educational Service District 121,17401,Highline School District,Puget Sound Skills Center,10,12,18010 8th Ave S, ,Seattle,Washington,98148-1908,Todd  Moorhead,todd.moorhead@highlineschools.org,206.631.7300," Public School, Vocational/technical school",V,High School,Public,98148,53033,King County
2272,South Kitsap High School,Teaches Computer Science,8.0,184.0,-122.6241624,47.53773422,239,47.53774,-122.624177,18801,Olympic Educational Service District 114,18402,South Kitsap School District,South Kitsap High School,9,12,425 MITCHELL AVE, ,Port Orchard,Washington,98366-0000,Diane  Fox,foxd@skschools.org,360.874.5600," Public School, Regular School",P,High School,Public,98366,53035,Kitsap County
2285,Roosevelt High School,Teaches Computer Science,12.0,294.0,-122.3126874,47.67739218,129,47.677398,-122.312702,17801,Puget Sound Educational Service District 121,17001,Seattle Public Schools,Roosevelt High School,9,12,1410 NE 66 ST, ,Seattle,Washington,98115-6744,Kristina  Rodgers,karodgers@seattleschools.org,206.252.4815," Public School, Regular School",P,High School,Public,98115,53033,King County
2295,Mount Vernon High School,Teaches Computer Science,7.0,105.0,-122.32763119999998,48.42414914,1831,48.424155,-122.327646,29801,Northwest Educational Service District 189,29320,Mount Vernon School District,Mount Vernon High School,9,12,314 N 9th St, ,Mount Vernon,Washington,98273-3327,Teresa  Wattawa,twattawa@mvsd320.org,360.428.6100," Public School, Regular School",P,High School,Public,98273,53057,Skagit County
2306,Garfield High School,Teaches Computer Science,12.0,506.0,-122.3018403,47.60515001,1095,47.60515582,-122.30185490000001,17801,Puget Sound Educational Service District 121,17001,Seattle Public Schools,Garfield High School,9,12,400 23 Ave, ,Seattle,Washington,98122-4928,Ted  Howard Ii,thoward@seattleschools.org,206.252.2270," Public School, Regular School",P,High School,Public,98122,53033,King County
2325,Highline High School,Teaches Computer Science,8.0,118.0,-122.33013740000001,47.46614119,1056,47.466147,-122.330152,17801,Puget Sound Educational Service District 121,17401,Highline School District,Highline High School,9,12,225 S 152nd St, ,Burien,Washington,98148-1087, , , ," Public School, Regular School",P,High School,Public,98148,53033,King County
2329,Cle Elum Roslyn High School,Teaches Computer Science,2.0,12.0,-120.9760807,47.20494607,674,47.204952,-120.976095,39801,Educational Service District 105,19404,Cle Elum-Roslyn School District,Cle Elum Roslyn High School,9,12,2692 SR 903, ,Cle Eum,Washington,98922-8706,Brett  Simpson,simpsonb@cersd.org,509.649.4901," Public School, Regular School",P,High School,Public,98922,53037,Kittitas County
2362,Burlington Edison High School,Teaches Computer Science,8.0,178.0,-122.3373962,48.47822614,552,48.478232,-122.33741100000002,29801,Northwest Educational Service District 189,29100,Burlington-Edison School District,Burlington Edison High School,9,12,301 N BURLINGTON BLVD, ,Burlington,Washington,98233-1199,Todd  Setterlund,tsetterlund@be.wednet.edu,360.757.4074," Public School, Regular School",P,High School,Public,98233,53057,Skagit County
2388,Selah High School,Teaches Computer Science,8.0,196.0,-120.5282909,46.66420606,174,46.664212,-120.528305,39801,Educational Service District 105,39119,Selah School District,Selah High School,9,12,801 North First Street, ,Selah,Washington,98942-0000,Todd   Hilberg,toddhilberg@selahschools.org,509.698.8505," Public School, Regular School",P,High School,Public,98942,53077,Yakima County
2390,Ridgefield High School,Teaches Computer Science,2.0,3.0,-122.7144527,45.79725533,94,45.797261,-122.714467,6801,Educational Service District 112,6122,Ridgefield School District,Ridgefield High School,9,12,2630 S HILLHURST ROAD, ,Ridgefield,Washington,98642-9089,Christen  Palmer,christen.palmer@ridgefieldsd.org,360.619.1323," Public School, Regular School",P,High School,Public,98642,53011,Clark County
2392,Cleveland High School Stem,Teaches Computer Science,16.0,646.0,-122.3141044,47.55238019,678,47.552386,-122.31411899999999,17801,Puget Sound Educational Service District 121,17001,Seattle Public Schools,Cleveland High School Stem,9,12,5511 15 AVE S, ,Seattle,Washington,98108-2823,George  Breland,glbreland@seattleschools.org,206.252.7800," Public School, Regular School",P,High School,Public,98108,53033,King County
2395,Bainbridge High School,Teaches Computer Science,6.0,167.0,-122.5240574,47.636349200000005,475,47.636355,-122.524072,17801,Puget Sound Educational Service District 121,18303,Bainbridge Island School District,Bainbridge High School,9,12,9330 NE High School RD, ,Bainbridge Island,Washington,98110-3695,Duane  Fish,dfish@bisd303.org,206.780.1250," Public School, Regular School",P,High School,Public,98110,53035,Kitsap County
2402,Mead Senior High School,Teaches Computer Science,11.0,292.0,-117.4146562,47.77007267,1768,47.770078999999996,-117.41467,32801,Educational Service District 101,32354,Mead School District,Mead Senior High School,9,12,302 W HASTINGS RD, ,Spokane,Washington,99218-2598,Teresa  Laher,teresa.laher@mead354.org,509.465.7000," Public School, Regular School",P,High School,Public,99218,53063,Spokane County
2415,Battle Ground High School,Teaches Computer Science,4.0,358.0,-122.54019869999999,45.78208831,484,45.782094,-122.540213,6801,Educational Service District 112,6119,Battle Ground School District,Battle Ground High School,9,12,PO Box 200, ,Battle Ground,Washington,98604-0200,Charbonneau D Gourde,gourde.charbonneau@battlegroundps.org,360.885.6560," Public School, Regular School",P,High School,Public,98604,53011,Clark County
2416,R A Long High School,Teaches Computer Science,4.0,104.0,-122.95590959999998,46.14060833,68,46.140614,-122.955924,6801,Educational Service District 112,8122,Longview School District,R A Long High School,9,12,2903 Nichols Blvd., ,Longview,Washington,98632-2704,Richard J. Reeves,rreeves@longview.k12.wa.us,360.575.7225," Public School, Regular School",P,High School,Public,98632,53015,Cowlitz County
2417,Federal Way High School,Teaches Computer Science,6.0,244.0,-122.31400249999999,47.327682200000005,875,47.327688,-122.31401699999999,17801,Puget Sound Educational Service District 121,17210,Federal Way School District,Federal Way High School,9,12,30611 16TH AV S, ,Federal Way,Washington,98003-4126,Matt  Oberst,moberst@fwps.org,253.945.5400," Public School, Regular School",P,High School,Public,98003,53033,King County
2419,Vashon Island High School,Teaches Computer Science,6.0,41.0,-122.45812839999999,47.42328721,392,47.423293,-122.45814299999999,17801,Puget Sound Educational Service District 121,17402,Vashon Island School District,Vashon Island High School,9,12,9600 SW 204TH ST, ,Vashon,Washington,98070-0000,Alanah  Baron,abaron@vashonsd.org,206.463.8682," Public School, Regular School",P,High School,Public,98070,53033,King County
2425,Clover Park High School,Teaches Computer Science,8.0,374.0,-122.5190645,47.15758823,680,47.157594,-122.519079,17801,Puget Sound Educational Service District 121,27400,Clover Park School District,Clover Park High School,9,12,11023 Gravelly LK DR SW, ,Lakewood,Washington,98499-0000,Tim  Stults,tstults@cloverpark.k12.wa.us,253.583.5500," Public School, Regular School",P,High School,Public,98499,53053,Pierce County
2428,Snohomish High School,Teaches Computer Science,4.0,102.0,-122.1000284,47.91837914,229,47.918385,-122.100043,29801,Northwest Educational Service District 189,31201,Snohomish School District,Snohomish High School,9,12,1316 Fifth Street, ,Snohomish,Washington,98290-0000,Eric  Cahan,eric.cahan@sno.wednet.edu,360.563.4001," Public School, Regular School",P,High School,Public,98290,53061,Snohomish County
2467,Anacortes High School,Teaches Computer Science,6.0,183.0,-122.62253510000001,48.50709617,445,48.507102,-122.62255,29801,Northwest Educational Service District 189,29103,Anacortes School District,Anacortes High School,9,12,1600 20th Street, ,Anacortes,Washington,98221-2396,Jon  Ronngren,jronngren@asd103.org,360.293.2166," Public School, Regular School",P,High School,Public,98221,53057,Skagit County
2471,Sequim Senior High,Teaches Computer Science,4.0,48.0,-123.10400220000001,48.08528424,177,48.08529,-123.104017,18801,Olympic Educational Service District 114,5323,Sequim School District,Sequim Senior High,9,12,601 N. Sequim Ave., ,Sequim,Washington,98382-0000,Shawn  Langston,slangston@sequim.k12.wa.us,360.582.3600," Public School, Regular School",P,High School,Public,98382,53009,Clallam County
2475,Renton Senior High School,Teaches Computer Science,3.0,85.0,-122.2117094,47.48294518,86,47.482951,-122.211724,17801,Puget Sound Educational Service District 121,17403,Renton School District,Renton Senior High School,9,12,400 S 2nd St, ,Renton,Washington,98055-2007,Gia  San Martin,giovanna.sanmartin@rentonschools.us,425.204.3400," Public School, Regular School",P,High School,Public,98055,53033,King County
2479,Rogers High School,Teaches Computer Science,8.0,98.0,-117.38605030000001,47.69969468,120,47.699701,-117.38606399999999,32801,Educational Service District 101,32081,Spokane School District,Rogers High School,9,12,1622 E Wellesley Ave, ,Spokane,Washington,99207-4299,Lori  Wyborney,loriwy@spokaneschools.org,509.354.6535," Public School, Regular School",P,High School,Public,99207,53063,Spokane County
2488,Ferndale High School,Teaches Computer Science,4.0,90.0,-122.5930601,48.85271815,878,48.852724,-122.593075,29801,Northwest Educational Service District 189,37502,Ferndale School District,Ferndale High School,9,12,P.O. Box 428, ,Ferndale,Washington,98248-0428,Jeremy  Vincent,jeremy.vincent@ferndalesd.org,360.383.9243," Public School, Regular School",P,High School,Public,98248,53073,Whatcom County
2499,Pullman High School,Teaches Computer Science,2.0,25.0,-117.18597949999999,46.74791573,60,46.747921999999996,-117.185993,32801,Educational Service District 101,38267,Pullman School District,Pullman High School,9,12,510 NW Greyhound Way, ,Pullman,Washington,99163-3585,Juston  Pollestad,jpollestad@psd267.org,509.332.1551," Public School, Regular School",P,High School,Public,99163,53075,Whitman County
2523,Arlington High School,Teaches Computer Science,8.0,140.0,-122.1149183,48.16606613,456,48.166072,-122.11493300000001,29801,Northwest Educational Service District 189,31016,Arlington School District,Arlington High School,9,12,18821 Crown Ridge Blvd, ,Arlington,Washington,98223-4015,Duane  Fish,dfish@asd.wednet.edu,360.618.6302," Public School, Regular School",P,High School,Public,98223,53061,Snohomish County
2553,Bellingham High School,Teaches Computer Science,8.0,208.0,-122.47397009999999,48.75687414,495,48.756879999999995,-122.47398500000001,29801,Northwest Educational Service District 189,37501,Bellingham School District,Bellingham High School,9,12,2020 Cornwall Ave, ,Bellingham,Washington,98225-3648,Linda  Miller,linda.miller@bellinghamschools.org,360.676.6575," Public School, Regular School",P,High School,Public,98225,53073,Whatcom County
2555,Grandview High School,Teaches Computer Science,2.0,50.0,-119.92357109999999,46.25230203,984,46.252308,-119.923585,39801,Educational Service District 105,39200,Grandview School District,Grandview High School,9,12,1601 W 5th ST, ,Grandview,Washington,98930-0000,Kimberly  Casey,kkcasey@gsd200.org,509.882.8750," Public School, Regular School",P,High School,Public,98930,53077,Yakima County
2580,Granite Falls High School,Teaches Computer Science,4.0,112.0,-121.9875973,48.08783912,977,48.087845,-121.98761200000001,29801,Northwest Educational Service District 189,31332,Granite Falls School District,Granite Falls High School,9,12,1401 100th St NE, ,Granite Falls,Washington,98252,Kevin  Davis,kdavis@gfalls.wednet.edu,360.691.7713," Public School, Regular School",P,High School,Public,98252,53061,Snohomish County
2581,Stanwood High School,Teaches Computer Science,2.0,68.0,-122.3337612,48.24233015,266,48.242336,-122.333776,29801,Northwest Educational Service District 189,31401,Stanwood-Camano School District,Stanwood High School,9,12,7400 272ND ST NW, ,Stanwood,Washington,98292-0000,Christine  Del Pozo,cdelpozo@stanwood.wednet.edu,360.629.1300," Public School, Regular School",P,High School,Public,98292,53061,Snohomish County
2588,Colton School,Teaches Computer Science,1.0,1.0,-117.1309935,46.56644973,688,46.566456,-117.13100700000001,32801,Educational Service District 101,38306,Colton School District,Colton School,PK,12,706 Union, ,Colton,Washington,99113-0000,Tim  Casey,tcasey@colton.k12.wa.us,509.229.3386," Public School, Regular School",P,PK-12,Public,99113,53075,Whitman County
2615,Central Kitsap High School,Teaches Computer Science,6.0,139.0,-122.6990933,47.65156922,626,47.651575,-122.69910800000001,18801,Olympic Educational Service District 114,18401,Central Kitsap School District,Central Kitsap High School,9,12,3700 NW Anderson Hill Road, ,Silverdale,Washington,98383-0008,Stephen  Coons,stephenc@cksd.wednet.edu,360.662.2400," Public School, Regular School",P,High School,Public,98383,53035,Kitsap County
2623,Manson High School,Teaches Computer Science,7.0,47.0,-120.1533857,47.89159394,1467,47.8916,-120.1534,4801,North Central Educational Service District 171,4019,Manson School District,Manson High School,9,12,PO BOX A,1000 Totem Pole Road,Manson,Washington,98831,Shawn  Thurman,sthurman@manson.org,509.687.9585," Public School, Regular School",P,High School,Public,98831,53007,Chelan County
2633,Yelm High School 12,Teaches Computer Science,4.0,112.0,-122.6243685,46.95056125,1303,46.950567,-122.62438300000001,34801,Capital Region ESD 113,34002,Yelm School District,Yelm High School 12,9,12,PO Box 476, ,Yelm,Washington,98597-0476,Ryan  Akiyama,ryan_akiyama@ycs.wednet.edu,360.458.7777," Public School, Regular School",P,High School,Public,98597,53067,Thurston County
2679,Tonasket High School,Teaches Computer Science,2.0,30.0,-119.434357,48.70170052,348,48.7017067,-119.43437140000002,4801,North Central Educational Service District 171,24404,Tonasket School District,Tonasket High School,9,12,35HS HIGHWAY 20, ,Tonasket,Washington,98855-0000,Brian  Ellis,bellis@tonasket.wednet.edu,509.486.2161," Public School, Regular School",P,High School,Public,98855,53047,Okanogan County
2681,Peninsula High School,Teaches Computer Science,22.0,278.0,-122.62341640000001,47.38685623,1998,47.386862,-122.62343100000001,17801,Puget Sound Educational Service District 121,27401,Peninsula School District,Peninsula High School,9,12,14105 Purdy Dr NW, ,Gig Harbor,Washington,98332-8627,Dave  Goodwin,goodwind@psd401.net,253.530.4400," Public School, Regular School",P,High School,Public,98332,53053,Pierce County
2701,Bellevue High School,Teaches Computer Science,12.0,658.0,-122.1973254,47.60472017,494,47.604726,-122.19734,17801,Puget Sound Educational Service District 121,17405,Bellevue School District,Bellevue High School,9,12,10416 Wolverine Way, ,Bellevue,Washington,98004-6600,Vic (Victor)  Anderson,andersonv@bsd405.org,425.456.7000," Public School, Regular School",P,High School,Public,98004,53033,King County
2724,Evergreen High School,Teaches Computer Science,10.0,184.0,-122.52580079999998,45.63670732,859,45.636713,-122.525815,6801,Educational Service District 112,6114,Evergreen School District (Clark),Evergreen High School,9,12,14300 NE 18th Street, ,Vancouver,Washington,98684-7807,Danny  Orrantia,danny.orrantia@evergreenps.org,360.604.3700," Public School, Regular School",P,High School,Public,98684,53011,Clark County
2728,North Beach Senior High School,Teaches Computer Science,2.0,35.0,-124.1582062,47.019276399999995,1890,47.019282000000004,-124.158221,34801,Capital Region ESD 113,14064,North Beach School District,North Beach Senior High School,9,12,P.O. Box 969, ,Ocean Shores,Washington,98569-0000,Cyndy  Valdez,cvaldez@northbeachschools.org,360.289.3888," Public School, Regular School",P,High School,Public,98569,53027,Grays Harbor County
2739,Lake Washington High,Teaches Computer Science,8.0,258.0,-122.1814114,47.67337417,1606,47.67338,-122.181426,17801,Puget Sound Educational Service District 121,17414,Lake Washington School District,Lake Washington High,9,12,12033 NE 80TH, ,Kirkland,Washington,98033-8117,Christina  Thomas,cthomas@lwsd.org,425.936.1700," Public School, Regular School",P,High School,Public,98033,53033,King County
2750,Orcas Island High School,Teaches Computer Science,2.0,19.0,-122.90211699999999,48.69933519,1954,48.699341,-122.90213200000001,29801,Northwest Educational Service District 189,28137,Orcas Island School District,Orcas Island High School,9,12,715 SCHOOL RD, ,Eastsound,Washington,98245-0000,Kyle  Freeman,kfreeman@orcas.k12.wa.us,360.376.2287," Public School, Regular School",P,High School,Public,98245,53055,San Juan County
2773,Fife High School,Teaches Computer Science,4.0,44.0,-122.3539375,47.23858221,883,47.238588,-122.353952,17801,Puget Sound Educational Service District 121,27417,Fife School District,Fife High School,10,12,5616 20th St E, ,Tacoma,Washington,98424-2026,Brandon  Bakke,bbakke@fifeschools.com,253.517.1100," Public School, Regular School",P,High School,Public,98424,53053,Pierce County
2788,Bridgeport High School,Teaches Computer Science,4.0,34.0,-119.67598149999999,48.00676313,533,48.00676924,-119.67599569999999,4801,North Central Educational Service District 171,9075,Bridgeport School District,Bridgeport High School,9,12,BOX 1060, ,Bridgeport,Washington,98813-0000,Tamra  Jackson,tjackson@bridgeport.wednet.edu,509.686.8770," Public School, Regular School",P,High School,Public,98813,53017,Douglas County
2795,Auburn Senior High School,Teaches Computer Science,6.0,128.0,-122.22020149999999,47.31046319,467,47.310469,-122.220216,17801,Puget Sound Educational Service District 121,17408,Auburn School District,Auburn Senior High School,9,12,711 E MAIN ST, ,Auburn,Washington,98002-5662,Jeffry  Gardner,jgardner@auburn.wednet.edu,253.931.4880," Public School, Regular School",P,High School,Public,98002,53033,King County
2797,Kent-Meridian High School,Teaches Computer Science,4.0,76.0,-122.20717350000001,47.37398918,1166,47.373995,-122.20718799999999,17801,Puget Sound Educational Service District 121,17415,Kent School District,Kent-Meridian High School,9,12,10020 SE 256th ST, ,Kent,Washington,98030-6408,David  Radford,david.radford@kent.k12.wa.us,253.373.7405," Public School, Regular School",P,High School,Public,98030,53033,King County
2807,Bethel High School,Teaches Computer Science,4.0,89.0,-122.37807450000001,47.05451822,501,47.054524,-122.37808899999999,17801,Puget Sound Educational Service District 121,27403,Bethel School District,Bethel High School,9,12,22215 38th Ave E, ,Spanaway,Washington,98387,Christy L Rodriquez,crodriguez@bethelsd.org,253.683.7000," Public School, Regular School",P,High School,Public,98387,53053,Pierce County
2826,Kennewick High School,Teaches Computer Science,21.0,293.0,-119.1240183,46.20374295,1159,46.203749,-119.124032,11801,Educational Service District 123,3017,Kennewick School District,Kennewick High School,9,12,500 SOUTH DAYTON STREET, ,Kennewick,Washington,99336-5674,Ron  King,ron.king@ksd.org,509.222.7100," Public School, Regular School",P,High School,Public,99336,53005,Benton County
2848,Foster Senior High School,Teaches Computer Science,8.0,144.0,-122.2798024,47.47473319,904,47.474739,-122.279817,17801,Puget Sound Educational Service District 121,17406,Tukwila School District,Foster Senior High School,9,12,4242 S 144th St, ,Tukwila,Washington,98168-0000,Megan  Mcgroarty,mcgroartym@tukwila.wednet.edu,206.901.7905," Public School, Regular School",P,High School,Public,98168,53033,King County
2849,Tahoma Senior High School,Teaches Computer Science,4.0,295.0,-122.0275019,47.35753708,321,47.35754291,-122.02751640000001,17801,Puget Sound Educational Service District 121,17409,Tahoma School District,Tahoma Senior High School,9,12,23499 SE Tahoma Way, ,Maple Valley,Washington,98038,Terry  Duty,tduty@tahomasd.us,425.413.6201," Public School, Regular School",P,High School,Public,98038,53033,King County
2850,Mount Si High School,Teaches Computer Science,10.0,392.0,-121.8166905,47.52247514,1830,47.522481,-121.816705,17801,Puget Sound Educational Service District 121,17410,Snoqualmie Valley School District,Mount Si High School,9,12,8651 MEADOWBROOK WAY SE, ,Snoqualmie,Washington,98065-0000,John  Belcher,belcherjh@svsd410.org,425.831.8100," Public School, Regular School",P,High School,Public,98065,53033,King County
2876,Franklin Pierce High School,Teaches Computer Science,4.0,238.0,-122.4068265,47.15692522,916,47.156931,-122.40684099999999,17801,Puget Sound Educational Service District 121,27402,Franklin Pierce School District,Franklin Pierce High School,9,12,11002 18TH AVE E, ,Tacoma,Washington,98445-5228,Ronald  Hartley,rhartley@fpschools.org,253.298.3000," Public School, Regular School",P,High School,Public,98445,53053,Pierce County
2890,Medical Lake High School,Teaches Computer Science,6.0,134.0,-117.68115420000001,47.57623771,1776,47.576244,-117.681168,32801,Educational Service District 101,32326,Medical Lake School District,Medical Lake High School,9,12,PO Box 128, ,Medical Lake,Washington,99022-0128,Christopher  Spring,cspring@mlsd.org,509.565.3200," Public School, Regular School",P,High School,Public,99022,53063,Spokane County
2900,Toppenish High School,Teaches Computer Science,2.0,23.0,-120.334011,46.38153106,349,46.381537,-120.334025,39801,Educational Service District 105,39202,Toppenish School District,Toppenish High School,9,12,141 WARD ROAD, ,Toppenish,Washington,98948-9100,Shawn  Myers,myerss@toppenish.wednet.edu,509.865.3370," Public School, Regular School",P,High School,Public,98948,53077,Yakima County
2908,Port Angeles High School,Teaches Computer Science,4.0,36.0,-123.44089509999999,48.10090928,43,48.100915,-123.44091,18801,Olympic Educational Service District 114,5121,Port Angeles School District,Port Angeles High School,9,12,304 E PARK AVE, ,Port Angeles,Washington,98362-6934,Jeffrey  Clark,jclark@portangelesschools.org,360.452.9502," Public School, Regular School",P,High School,Public,98362,53009,Clallam County
2917,Pasco Senior High School,Teaches Computer Science,3.0,45.0,-119.1042932,46.23854995,1992,46.238556,-119.104307,11801,Educational Service District 123,11001,Pasco School District,Pasco Senior High School,9,12,1108 N 10TH AVENUE, ,Pasco,Washington,99301-0000,Raul  Sital,rsital@psd1.org,509.547.5581," Public School, Regular School",P,High School,Public,99301,53021,Franklin County
2942,Orting High School,Teaches Computer Science,12.0,140.0,-122.2096355,47.102144200000005,1964,47.10215,-122.20965,17801,Puget Sound Educational Service District 121,27344,Orting School District,Orting High School,9,12,320 Washington Avenue North, ,Orting,Washington,98360-8404,Cliff  Fries,friesc@orting.wednet.edu,360.893.2246," Public School, Regular School",P,High School,Public,98360,53053,Pierce County
2958,Northport High School,Teaches Computer Science,4.0,40.0,-117.7892679,48.91183264,1513,48.911839,-117.789282,32801,Educational Service District 101,33211,Northport School District,Northport High School,9,12,PO Box 1280, ,Northport,Washington,99157-1280,Don  Baribault,dbaribault@northportschools.org,509.732.4251," Public School, Regular School",P,High School,Public,99157,53065,Stevens County
2959,Sunnyside High School,Teaches Computer Science,4.0,33.0,-119.9974631,46.32279903,303,46.322804999999995,-119.997477,39801,Educational Service District 105,39201,Sunnyside School District,Sunnyside High School,9,12,1110 S. 6th Street, ,Sunnyside,Washington,98944-2197,Ryan  Maxwell,ryan.maxwell@sunnysideschools.org,509.837.2601," Public School, Regular School",P,High School,Public,98944,53077,Yakima County
2974,Oak Harbor High School,Teaches Computer Science,4.0,104.0,-122.66874720000001,48.30198718,1919,48.301992999999996,-122.66876200000002,29801,Northwest Educational Service District 189,15201,Oak Harbor School District,Oak Harbor High School,9,12,950 NW 2nd Ave., ,Oak Harbor,Washington,98277-0000,Dwight  Lundstrom,dlundstrom@ohsd.net,(360)279.5701," Public School, Regular School",P,High School,Public,98277,53029,Island County
3008,Bryant Center,Teaches Computer Science,5.0,43.0,-117.43638130000001,47.66531368,2163,47.66532,-117.43639499999999,32801,Educational Service District 101,32081,Spokane School District,Bryant Center,PK,12,N 910 Ash St, ,Spokane,Washington,99201-1811,Suzanne  Smith,suzannes@spokaneschools.org,509.354.7810," Alternative School, Public School",A,PK-12,Public,99201,53063,Spokane County
3029,Mercer Island High School,Teaches Computer Science,5.0,349.0,-122.2181504,47.57191617,1784,47.571922,-122.21816499999998,17801,Puget Sound Educational Service District 121,17400,Mercer Island School District,Mercer Island High School,9,12,9100 SE 42nd, ,Mercer Island,Washington,98040-4199,Vicki  Puckett,vicki.puckett@mercerislandschools.org,206.236.3350," Public School, Regular School",P,High School,Public,98040,53033,King County
3065,Central Valley High School,Teaches Computer Science,9.0,262.0,-117.19339029999999,47.64920266,629,47.649209,-117.193404,32801,Educational Service District 101,32356,Central Valley School District,Central Valley High School,9,12,821 S Sullivan Rd, ,Spokane Valley,Washington,99037-8826,Kerri  Ames,kames@cvsd.org,509.558.5102," Public School, Regular School",P,High School,Public,99037,53063,Spokane County
3081,Hudson'S Bay High School,Teaches Computer Science,4.0,94.0,-122.6530488,45.63096333,1083,45.630969,-122.65306299999999,6801,Educational Service District 112,6037,Vancouver School District,Hudson'S Bay High School,9,12,1601 E MCLOUGHLIN BLVD, ,Vancouver,Washington,98663-3528,Valerie Jean Anderson-Seeley,valerie.seeley@vansd.org,360.313.4400," Public School, Regular School",P,High School,Public,98663,53011,Clark County
3088,Quincy High School,Teaches Computer Science,10.0,153.0,-119.8412789,47.23667895,66,47.236684999999994,-119.841293,4801,North Central Educational Service District 171,13144,Quincy School District,Quincy High School,9,12,16 6th AVE SE, ,Quincy,Washington,98848-0000,Marcus  Pimpleton,mpimplet@qsd.wednet.edu,509.787.3501," Public School, Regular School",P,High School,Public,98848,53025,Grant County
3099,Evergreen High School,Teaches Computer Science,6.0,160.0,-122.34487040000002,47.49981119,2220,47.499817,-122.344885,17801,Puget Sound Educational Service District 121,17401,Highline School District,Evergreen High School,9,12,830 SW 116th St, ,Seattle,Washington,98146-2298,Jacqueline   Downey,jacqueline.downey@highlineschools.org,206.631.6150," Public School, Regular School",P,High School,Public,98146,53033,King County
3106,Bothell High School,Teaches Computer Science,12.0,184.0,-122.2191304,47.76057016,524,47.760576,-122.219145,17801,Puget Sound Educational Service District 121,17417,Northshore School District,Bothell High School,9,12,9130 NE 180 ST, ,Bothell,Washington,98011-3360,Juan  Price,jprice@nsd.org,425.408.7000," Public School, Regular School",P,High School,Public,98011,53033,King County
3109,Bremerton High School,Teaches Computer Science,7.0,209.0,-122.63902140000002,47.57330822,528,47.573314,-122.639036,18801,Olympic Educational Service District 114,18100,Bremerton School District,Bremerton High School,9,12,1500 13th Street, ,Bremerton,Washington,98337-1370,Monica  Zuber,monica.zuber@bremertonschools.org,360.473.0800," Public School, Regular School",P,High School,Public,98337,53035,Kitsap County
3123,Edmonds Woodway High School,Teaches Computer Science,5.0,93.0,-122.3368513,47.80593618,811,47.805942,-122.33686599999999,29801,Northwest Educational Service District 189,31015,Edmonds School District,Edmonds Woodway High School,9,12,7600  212TH STREET SW, ,Edmonds,Washington,98026-7556,Terrance  Mims,mimst292@edmonds.wednet.edu,425.431.7906," Public School, Regular School",P,High School,Public,98026,53061,Snohomish County
3132,Olympia High School,Teaches Computer Science,6.0,298.0,-122.88467539999999,47.01860127,1937,47.018607,-122.88468999999999,34801,Capital Region ESD 113,34111,Olympia School District,Olympia High School,9,12,1302 NORTH ST SE, ,Olympia,Washington,98501-3697,Matthew H Grant,mgrant@osd.wednet.edu,360.596.7000," Public School, Regular School",P,High School,Public,98501,53067,Thurston County
3141,Wapato High School,Teaches Computer Science,2.0,49.0,-120.421568,46.43807006,418,46.438076,-120.421582,39801,Educational Service District 105,39207,Wapato School District,Wapato High School,9,12,1202 South Camas Avenue, ,Wapato,Washington,98951-0038,David  Blakney,ericd@wapatosd.org,509.877.3138," Public School, Regular School",P,High School,Public,98951,53077,Yakima County
3151,Mark Morris High School,Teaches Computer Science,1.0,1.0,-122.93645159999998,46.14487733,1728,46.144883,-122.936466,6801,Educational Service District 112,8122,Longview School District,Mark Morris High School,9,12,1602 Mark Morris Court, ,Longview,Washington,98632-3926,Brooks  Cooper,bcooper@longview.k12.wa.us,360.575.7663," Public School, Regular School",P,High School,Public,98632,53015,Cowlitz County
3175,North Mason Senior High School,Teaches Computer Science,4.0,68.0,-122.84142140000002,47.41337925,1898,47.413385,-122.84143600000002,18801,Olympic Educational Service District 114,23403,North Mason School District,North Mason Senior High School,9,12,150 E North Mason School Road, ,Belfair,Washington,98528-0000,Chad  Collins,ccollins@northmasonschools.org,360.277.2169," Public School, Regular School",P,High School,Public,98528,53045,Mason County
3188,Darrington High School,Teaches Computer Science,1.0,10.0,-121.60324740000001,48.24777607,1374,48.247782,-121.60326200000002,29801,Northwest Educational Service District 189,31330,Darrington School District,Darrington High School,9,12,PO BOX 27, ,Darrington,Washington,98241-0027,Rachel E Quarterman,rquarterman@dsd.k12.wa.us,360.436.1140," Public School, Regular School",P,High School,Public,98241,53061,Snohomish County
3189,Shadle Park High School,Teaches Computer Science,4.0,202.0,-117.43718030000001,47.69840968,182,47.698415999999995,-117.43719399999999,32801,Educational Service District 101,32081,Spokane School District,Shadle Park High School,9,12,4327 N Ash St, ,Spokane,Washington,99205-1498,Julie S Lee,juliel@spokaneschools.org,509.354.6700," Public School, Regular School",P,High School,Public,99205,53063,Spokane County
3192,Freeman High School,Teaches Computer Science,1.0,25.0,-117.1964753,47.51969567,920,47.519702,-117.19648899999999,32801,Educational Service District 101,32358,Freeman School District,Freeman High School,9,12,S 14626 Jackson, ,Rockford,Washington,99030-9755,Jim  Straw,jstraw@freemansd.org,509.291.3721 ext.200," Public School, Regular School",P,High School,Public,99030,53063,Spokane County
3195,West Valley High School,Teaches Computer Science,8.0,164.0,-117.29258529999998,47.68368067,1234,47.683687,-117.292599,32801,Educational Service District 101,32363,West Valley School District (Spokane),West Valley High School,9,12,8301 E BUCKEYE, ,Spokane,Washington,99212-0000,John  Custer,john.custer@wvsd.org,509.922.5488," Public School, Regular School",P,High School,Public,99212,53063,Spokane County
3206,Eisenhower High School,Teaches Computer Science,4.0,160.0,-120.5660905,46.59196627,5,46.5919722,-120.56610459999999,39801,Educational Service District 105,39007,Yakima School District,Eisenhower High School,9,12,611 South 44th Avenue, ,Yakima,Washington,98908-3399,John Eric Diener,diener.john@yakimaschools.org,509.573.2601," Public School, Regular School",P,High School,Public,98908,53077,Yakima County
3215,Moses Lake High School,Teaches Computer Science,4.0,66.0,-119.26553500000001,47.1117329,1826,47.111739,-119.265549,4801,North Central Educational Service District 171,13161,Moses Lake School District,Moses Lake High School,9,12,803 E. SHARON AVE., ,Moses Lake,Washington,98837-0000, , , ," Public School, Regular School",P,High School,Public,98837,53025,Grant County
3236,North Kitsap High School,Teaches Computer Science,2.0,118.0,-122.62574029999999,47.73465321,1895,47.734659,-122.625755,18801,Olympic Educational Service District 114,18400,North Kitsap School District,North Kitsap High School,9,12,1780 NE Hostmark St, ,Poulsbo,Washington,98370-7682,Megan Angela Sawicki,msawicki@nkschools.org,360.396.3102," Public School, Regular School",P,High School,Public,98370,53035,Kitsap County
3246,Wilson,Teaches Computer Science,4.0,148.0,-122.50690039999999,47.26142622,1277,47.261432,-122.50691499999999,17801,Puget Sound Educational Service District 121,27010,Tacoma School District,Wilson,9,12,1202 N Orchard St, ,Tacoma,Washington,98406-0000,Bernadette  Ray,bray@tacoma.k12.wa.us,253.571.6000," Public School, Regular School",P,High School,Public,98406,53053,Pierce County
3247,Sumner High School,Teaches Computer Science,2.0,67.0,-122.2331145,47.2040452,294,47.204051,-122.233129,17801,Puget Sound Educational Service District 121,27320,Sumner School District,Sumner High School,9,12,1707 Main St, ,Sumner,Washington,98390-0000,Kassi  Meath,kassie_meath@sumnersd.org,253.891.5500," Public School, Regular School",P,High School,Public,98390,53053,Pierce County
3276,Ingraham High School,Teaches Computer Science,18.0,379.0,-122.3379924,47.72603018,1100,47.726036,-122.338007,17801,Puget Sound Educational Service District 121,17001,Seattle Public Schools,Ingraham High School,9,12,1819 N 135 ST, ,Seattle,Washington,98133-7709,Martin  Floe,mfloe@seattleschools.org,(206) 252-3880," Public School, Regular School",P,High School,Public,98133,53033,King County
3282,Sammamish Senior High,Teaches Computer Science,6.0,204.0,-122.15239840000002,47.60758717,154,47.607593,-122.152413,17801,Puget Sound Educational Service District 121,17405,Bellevue School District,Sammamish Senior High,9,12,100  140th Avenue SE, ,Bellevue,Washington,98005-3721,Scott  Powers,powersw@bsd405.org,425.456.7600," Public School, Regular School",P,High School,Public,98005,53033,King County
3303,Mountlake Terrace High School,Teaches Computer Science,10.0,316.0,-122.2879294,47.80190317,1843,47.801909,-122.287944,29801,Northwest Educational Service District 189,31015,Edmonds School District,Mountlake Terrace High School,9,12,21801 44TH AVE W, ,Mtlk Terrace,Washington,98043-3598,Greg  Schellenberg,schellenbergg721@edmonds.wednet.edu,425.431.7777," Public School, Regular School",P,High School,Public,98043,53061,Snohomish County
3310,Colville Senior High School,Teaches Computer Science,2.0,75.0,-117.876053,48.54485867,703,48.544865,-117.87606699999999,32801,Educational Service District 101,33115,Colville School District,Colville Senior High School,9,12,154 Highway 20 E, ,Colville,Washington,99114-9246,Kevin  Knight,kknight@colsd.org,509.684.7800," Public School, Regular School",P,High School,Public,99114,53065,Stevens County
3327,Rainier Beach High School,Teaches Computer Science,4.0,110.0,-122.26607040000002,47.52430318,69,47.524309,-122.266085,17801,Puget Sound Educational Service District 121,17001,Seattle Public Schools,Rainier Beach High School,9,12,8815 SEWARD PARK AV S, ,Seattle,Washington,98118-4743,Keith  Smith,klsmith@seattleschools.org,206.252.6350," Public School, Regular School",P,High School,Public,98118,53033,King County
3330,Enumclaw Sr High School,Teaches Computer Science,4.0,68.0,-122.00694850000001,47.19037817,844,47.190384,-122.00696299999998,17801,Puget Sound Educational Service District 121,17216,Enumclaw School District,Enumclaw Sr High School,9,12,226 Semanski St South, ,Enumclaw,Washington,98022-2099,Aaron  Lee,aaron_lee@enumclaw.wednet.edu,360.802.7669," Public School, Regular School",P,High School,Public,98022,53033,King County
3343,Shorecrest High School,Teaches Computer Science,4.0,96.0,-122.3034374,47.74094617,198,47.740952,-122.30345200000001,17801,Puget Sound Educational Service District 121,17412,Shoreline School District,Shorecrest High School,9,12,15343 25th Avenue N.E., ,Shoreline,Washington,98155-7394,Lisa  Gonzalez,lisa.gonzalez@shorelineschools.org,206.393.4289," Public School, Regular School",P,High School,Public,98155,53033,King County
3360,East Valley High School,Teaches Computer Science,6.0,102.0,-117.1937373,47.70220066,790,47.702207,-117.193751,32801,Educational Service District 101,32361,East Valley School District (Spokane),East Valley High School,9,12,15711 E Wellesley Ave, ,Spokane Valley,Washington,99216-1596,Matthew  Stevens,stevensma@evsd.org,509.927.3200," Public School, Regular School",P,High School,Public,99216,53063,Spokane County
3362,Tumwater High School,Teaches Computer Science,10.0,318.0,-122.91628940000001,46.98617028,366,46.986176,-122.916304,34801,Capital Region ESD 113,34033,Tumwater School District,Tumwater High School,9,12,700 Israel Road, ,Tumwater,Washington,98501-0000,Jeff  Broome,jeff.broome@tumwater.k12.wa.us,360.709.7600," Public School, Regular School",P,High School,Public,98501,53067,Thurston County
3385,Issaquah High School,Teaches Computer Science,6.0,280.0,-122.02807250000001,47.52252216,1107,47.522528,-122.02808700000001,17801,Puget Sound Educational Service District 121,17411,Issaquah School District,Issaquah High School,9,12,700 2ND AVE SE, ,Issaquah,Washington,98027-4319,Andrea Marlo Mccormick,mccormicka@issaquah.wednet.edu,425.837.6000," Public School, Regular School",P,High School,Public,98027,53033,King County
3407,Cascade High School,Teaches Computer Science,8.0,148.0,-122.22260929999999,47.92448916,584,47.924495,-122.222624,29801,Northwest Educational Service District 189,31002,Everett School District,Cascade High School,9,12,801 E. Casino Rd., ,Everett,Washington,98203-6599,Cathy  Woods,cwoods2@everettsd.org,425.385.6000," Public School, Regular School",P,High School,Public,98203,53061,Snohomish County
3412,Ferris High School,Teaches Computer Science,10.0,190.0,-117.36533329999999,47.61971768,880,47.619724,-117.365347,32801,Educational Service District 101,32081,Spokane School District,Ferris High School,9,12,3020 E 37Th Ave, ,Spokane,Washington,99223-4598,Ken  Schutz,kens@spokaneschools.org,509.354.6000," Public School, Regular School",P,High School,Public,99223,53063,Spokane County
3415,University High School,Teaches Computer Science,14.0,316.0,-117.23656570000001,47.62704077,380,47.6270471,-117.2365794,32801,Educational Service District 101,32356,Central Valley School District,University High School,9,12,12420 E 32nd Ave, ,Spokane Valley,Washington,99216-0140,Keven  Frandsen,kfrandsen@cvsd.org,509.558.6051," Public School, Regular School",P,High School,Public,99216,53063,Spokane County
3423,Columbia River High,Teaches Computer Science,12.0,264.0,-122.6790117,45.69409333,699,45.694099,-122.67902600000001,6801,Educational Service District 112,6037,Vancouver School District,Columbia River High,9,12,800 NW 99TH ST, ,Vancouver,Washington,98665-7599,Alexander  Geoffery Otoupal,alex.otoupal@vansd.org,360.313.3900," Public School, Regular School",P,High School,Public,98665,53011,Clark County
3456,Lakes High School,Teaches Computer Science,8.0,436.0,-122.5748095,47.16237323,1615,47.162379,-122.57482399999999,17801,Puget Sound Educational Service District 121,27400,Clover Park School District,Lakes High School,9,12,10320 Farwest DR SW, ,Lakewood,Washington,98498-1799,Karen  Mauer-Smith,kmauersm@cloverpark.k12.wa.us,253.583.5550," Public School, Regular School",P,High School,Public,98498,53053,Pierce County
3464,Meadowdale High School,Teaches Computer Science,9.0,234.0,-122.3146243,47.84557617,1773,47.845582,-122.31463899999999,29801,Northwest Educational Service District 189,31015,Edmonds School District,Meadowdale High School,9,12,6002 168TH ST SW, ,Lynnwood,Washington,98037-2799,David  Shockley,shockleyd807@edmonds.wednet.edu,425.431.7651," Public School, Regular School",P,High School,Public,98037,53061,Snohomish County
3467,Wahkiakum High School,Teaches Computer Science,2.0,17.0,-123.37739520000001,46.20033654,2093,46.20034218,-123.3774096,6801,Educational Service District 112,35200,Wahkiakum School District,Wahkiakum High School,9,12,PO Box 398, ,Cathlamet,Washington,98612-0398,Stephanie  Leitz,sleitz@wahksd.k12.wa.us,360.795.3271," Public School, Regular School",P,High School,Public,98612,53069,Wahkiakum County
3468,Walla Walla High School,Teaches Computer Science,8.0,322.0,-118.3179114,46.04447489,411,46.044481,-118.317925,11801,Educational Service District 123,36140,Walla Walla Public Schools,Walla Walla High School,9,12,800 ABBOTT RD, ,Walla Walla,Washington,99362-9300,Ron  Higgins,rhiggins@wwps.org,509.527.3020," Public School, Regular School",P,High School,Public,99362,53071,Walla Walla County
3476,J M Weatherwax High School,Teaches Computer Science,2.0,56.0,-123.81794529999999,46.98001337,416,46.980019,-123.81796000000001,34801,Capital Region ESD 113,14005,Aberdeen School District,J M Weatherwax High School,9,12,410 North G Street, ,Aberdeen,Washington,98520,Sherri  Northington,snorthington@asd5.org,360.538.2045," Public School, Regular School",P,High School,Public,98520,53027,Grays Harbor County
3479,Nathan Hale High School,Teaches Computer Science,16.0,308.0,-122.29431640000001,47.70776818,1867,47.707774,-122.294331,17801,Puget Sound Educational Service District 121,17001,Seattle Public Schools,Nathan Hale High School,9,12,10750 30 AV NE, ,Seattle,Washington,98125-7937,Jill   Hudson,jshudson@seattleschools.org,206.252.3680," Public School, Regular School",P,High School,Public,98125,53033,King County
3483,Tyee High School,Teaches Computer Science,8.0,238.0,-122.27704640000002,47.43516219,2221,47.435168,-122.277061,17801,Puget Sound Educational Service District 121,17401,Highline School District,Tyee High School,9,12,4424 S 188th St, ,Seatac,Washington,98188-5097,Timothy  Schlosser,timothy.schlosser@highlineschools.org,206.631.6400," Public School, Regular School",P,High School,Public,98188,53033,King County
3486,Newport Senior High School,Teaches Computer Science,8.0,490.0,-122.1721064,47.56782917,1879,47.567834999999995,-122.17212099999999,17801,Puget Sound Educational Service District 121,17405,Bellevue School District,Newport Senior High School,9,12,4333 Factoria Boulevard SE, ,Bellevue,Washington,98006-1999,Dion  Yahoudy,yahoudyd@bsd405.org,425.456.7400," Public School, Regular School",P,High School,Public,98006,53033,King County
3492,Inglemoor Hs,Teaches Computer Science,6.0,284.0,-122.22217140000002,47.74071117,1098,47.740717,-122.22218600000001,17801,Puget Sound Educational Service District 121,17417,Northshore School District,Inglemoor Hs,9,12,15500 Simonds RD NE, ,Kenmore,Washington,98028-4430,Adam  Desautels,adesautels@nsd.org,425.408.7200," Public School, Regular School",P,High School,Public,98028,53033,King County
3508,Columbia High And Elementary,Teaches Computer Science,2.0,4.0,-118.202882,48.11984973,690,48.119856,-118.202896,32801,Educational Service District 101,33206,Columbia (Stevens) School District,Columbia High And Elementary,PK,12,PO Box 7, ,Hunters,Washington,99137-0007,Matthew A Mclain,mmclain@columbia206.com,509.722.3311," Public School, Regular School",P,PK-12,Public,99137,53065,Stevens County
3516,Royal High School,Teaches Computer Science,6.0,100.0,-119.62698600000002,46.91287195,138,46.912878000000006,-119.62700000000001,39801,Educational Service District 105,13160,Royal School District,Royal High School,9,12,PO Box 486, ,Royal City,Washington,99357-0486,Rick  Follett,rfollett@royalsd.org,509.346.2256," Public School, Regular School",P,High School,Public,99357,53025,Grant County
3524,Cedarcrest High School,Teaches Computer Science,8.0,198.0,-121.9524584,47.73573114,610,47.735737,-121.952473,17801,Puget Sound Educational Service District 121,17407,Riverview School District,Cedarcrest High School,9,12,29000 NE 150th St, ,Duvall,Washington,98019-8519,Ray  Labate,labater@rsd407.org,425.844.4800," Public School, Regular School",P,High School,Public,98019,53033,King County
3528,Redmond High,Teaches Computer Science,6.0,431.0,-122.10700039999999,47.69524116,79,47.695246999999995,-122.10701499999999,17801,Puget Sound Educational Service District 121,17414,Lake Washington School District,Redmond High,9,12,17272 NE 104th, ,Redmond,Washington,98052-2813,Jane  Todd,jtodd@lwsd.org,425.936.1800," Public School, Regular School",P,High School,Public,98052,53033,King County
3546,Woodland High School,Teaches Computer Science,2.0,40.0,-122.76429250000001,45.92960074,1290,45.92960641,-122.7643068,6801,Educational Service District 112,8404,Woodland School District,Woodland High School,9,12,1500 Dike Access Road, ,Woodland,Washington,98674,John  Shoup,shoupj@woodlandschools.org,360.841.2900," Public School, Regular School",P,High School,Public,98674,53011,Clark County
3553,Raisbeck Aviation High School,Teaches Computer Science,4.0,66.0,-122.3259804,47.42187619,470,47.421882000000004,-122.32599499999999,17801,Puget Sound Educational Service District 121,17401,Highline School District,Raisbeck Aviation High School,9,12,9229 East Marginal Way S, ,Tukwila,Washington,98108,Therese  Tipton,therese.tipton@highlineschools.org,206.631.7200," Alternative School, Public School",A,High School,Public,98108,53033,King County
3564,Cascade High School,Teaches Computer Science,8.0,34.0,-120.6545277,47.60185001,583,47.601856,-120.65454199999999,4801,North Central Educational Service District 171,4228,Cascade School District,Cascade High School,9,12,10190 Chumstick Hwy, ,Leavenworth,Washington,98826-9113,Elia  Ala'Ilima-Daley,edaley@cascadesd.org,509.548.5277," Public School, Regular School",P,High School,Public,98826,53007,Chelan County
3576,Sehome High School,Teaches Computer Science,4.0,110.0,-122.48074109999999,48.72799214,173,48.727998,-122.480756,29801,Northwest Educational Service District 189,37501,Bellingham School District,Sehome High School,9,12,2700 Bill McDonald Pkwy, ,Bellingham,Washington,98225-5909,Michelle  Kuss-Cybula,michelle.kuss-cybula@bellinghamschools.org,360.676.6481," Public School, Regular School",P,High School,Public,98225,53073,Whatcom County
3579,Republic Senior High School,Teaches Computer Science,1.0,8.0,-118.7268928,48.64180375,87,48.64181,-118.72690700000001,32801,Educational Service District 101,10309,Republic School District,Republic Senior High School,9,12,30306 HIGHWAY 20 E, ,Republic,Washington,99166-0000,Chris  Burch,cburch@republicsd.org,509.775.3327," Public School, Regular School",P,High School,Public,99166,53019,Ferry County
3584,Thomas Jefferson High School,Teaches Computer Science,6.0,285.0,-122.2793375,47.34472319,330,47.344729,-122.279352,17801,Puget Sound Educational Service District 121,17210,Federal Way School District,Thomas Jefferson High School,9,12,4248 S 288TH ST, ,Auburn,Washington,98001-2820,Adrienne  Chacon,achacon@fwps.org,253.945.5600," Public School, Regular School",P,High School,Public,98001,53033,King County
3588,Interlake Senior High School,Teaches Computer Science,10.0,610.0,-122.12291640000001,47.62925516,358,47.629261,-122.12293100000001,17801,Puget Sound Educational Service District 121,17405,Bellevue School District,Interlake Senior High School,9,12,16245 NE 24th Street, ,Bellevue,Washington,98008-2492,Maria  Frieboes-Gee,frieboem@bsd405.org,425.456.7200," Public School, Regular School",P,High School,Public,98008,53033,King County
3597,Winlock Senior High,Teaches Computer Science,2.0,50.0,-122.8921325,46.4902763,1282,46.490282,-122.892147,34801,Capital Region ESD 113,21232,Winlock School District,Winlock Senior High,9,12,241 NORTH MILITARY ROAD, ,Winlock,Washington,98596-0000,Brian   Maley,bmaley@winlock.wednet.edu,360.785.3537," Public School, Regular School",P,High School,Public,98596,53041,Lewis County
3600,Curtis Senior High,Teaches Computer Science,6.0,95.0,-122.5494544,47.22156423,734,47.22157,-122.54946899999999,17801,Puget Sound Educational Service District 121,27083,University Place School District,Curtis Senior High,10,12,8425 40TH W, ,University Place,Washington,98466-0000,Tom  Adams,tadams@upsd83.org,253.566.5710," Public School, Regular School",P,High School,Public,98466,53053,Pierce County
3610,Cheney High School,Teaches Computer Science,12.0,208.0,-117.5769743,47.49803171,647,47.498038,-117.57698799999999,32801,Educational Service District 101,32360,Cheney School District,Cheney High School,9,12,460 N SIXTH ST, ,Cheney,Washington,99004-2297,Troy  Heuett,theuett@cheneysd.org,509.559.4001," Public School, Regular School",P,High School,Public,99004,53063,Spokane County
3630,Hazen Senior High School,Teaches Computer Science,10.0,366.0,-122.1523794,47.50159117,1034,47.501597,-122.152394,17801,Puget Sound Educational Service District 121,17403,Renton School District,Hazen Senior High School,9,12,1101 Hoquiam Ave NE, ,Renton,Washington,98059-4314,Kate  O'Brien,katie.obrien@rentonschools.us,425.204.4200," Public School, Regular School",P,High School,Public,98059,53033,King County
3640,Kentridge High School,Teaches Computer Science,8.0,146.0,-122.17399650000002,47.41683718,1167,47.416843,-122.17401100000001,17801,Puget Sound Educational Service District 121,17415,Kent School District,Kentridge High School,9,12,12430 SE 208th ST, ,Kent,Washington,98031-2231,Mike  Albrecht,mike.albrecht@kent.k12.wa.us,(253) 373-7345," Public School, Regular School",P,High School,Public,98031,53033,King County
3648,Washington High School,Teaches Computer Science,8.0,232.0,-122.4554665,47.14408722,1215,47.144093,-122.455481,17801,Puget Sound Educational Service District 121,27402,Franklin Pierce School District,Washington High School,9,12,12420 Ainsworth Ave S, ,Tacoma,Washington,98444-2398,Brent  Whitemarsh,bwhitemarsh@fpschools.org,253.298.3000," Public School, Regular School",P,High School,Public,98444,53053,Pierce County
3688,Mariner High School,Teaches Computer Science,4.0,86.0,-122.23570430000001,47.88851216,1727,47.888518,-122.23571899999999,29801,Northwest Educational Service District 189,31006,Mukilteo School District,Mariner High School,9,12,200 120th Street SW, ,Everett,Washington,98204,Nathan A Duchesne,duchesnena@mukilteo.wednet.edu,425.366.5700," Public School, Regular School",P,High School,Public,98204,53061,Snohomish County
3710,Timberline High School,Teaches Computer Science,6.0,38.0,-122.7999055,47.00786727,342,47.007873,-122.79992,34801,Capital Region ESD 113,34003,North Thurston Public Schools,Timberline High School,9,12,6120 Mullen Rd SE, ,Lacey,Washington,98503-7199,Paul  Dean,pdean@nthurston.k12.wa.us,360.412.4860," Public School, Regular School",P,High School,Public,98503,53067,Thurston County
3731,Kamiakin High School,Teaches Computer Science,13.0,281.0,-119.18810320000001,46.21704596,1145,46.217052,-119.18811699999999,11801,Educational Service District 123,3017,Kennewick School District,Kamiakin High School,9,12,600 NORTH ARTHUR STREET, ,Kennewick,Washington,99336-2196,Chris  Chelin,chris.chelin@ksd.org,509.222.6478," Public School, Regular School",P,High School,Public,99336,53005,Benton County
3741,Lindbergh Senior High School,Teaches Computer Science,8.0,298.0,-122.16675649999999,47.45492818,1665,47.454934,-122.166771,17801,Puget Sound Educational Service District 121,17403,Renton School District,Lindbergh Senior High School,9,12,16426 128th Ave SE, ,Renton,Washington,98058-5534,Hkwauaquejol  Hollins,hkwauaquejol.hollins@rentonschools.us,425.204.3200," Public School, Regular School",P,High School,Public,98058,53033,King County
3755,Lynnwood High School,Teaches Computer Science,4.0,136.0,-122.23981940000002,47.83392016,1696,47.833926,-122.239834,29801,Northwest Educational Service District 189,31015,Edmonds School District,Lynnwood High School,9,12,18218 NORTH RD, ,Bothell,Washington,98012,Mike  Piper,piperm@edmonds.wednet.edu,425.431.7523," Public School, Regular School",P,High School,Public,98012,53061,Snohomish County
3766,Decatur High School,Teaches Computer Science,6.0,134.0,-122.36782849999999,47.31712720000001,751,47.317133,-122.367843,17801,Puget Sound Educational Service District 121,17210,Federal Way School District,Decatur High School,9,12,2800 SW 320TH ST, ,Federal Way,Washington,98023-2207,Jamie  Tough,jtough@fwps.org,253.945.5200," Public School, Regular School",P,High School,Public,98023,53033,King County
3771,Juanita High,Teaches Computer Science,6.0,176.0,-122.1986574,47.71550516,1137,47.715511,-122.198672,17801,Puget Sound Educational Service District 121,17414,Lake Washington School District,Juanita High,9,12,10601 NE 132ND, ,Kirkland,Washington,98034-2872,Kelly  Clapp,kclapp@lwsd.org,425.936.1600," Public School, Regular School",P,High School,Public,98034,53033,King County
3833,Hanford High School,Teaches Computer Science,8.0,150.0,-119.2674022,46.32546496,1008,46.325471,-119.267416,11801,Educational Service District 123,3400,Richland School District,Hanford High School,9,12,450 Hanford Street, ,Richland,Washington,99352-0000,Tory  Christensen,tory.christensen@rsd.edu,509.967.6500," Public School, Regular School",P,High School,Public,99352,53005,Benton County
3880,Foss,Teaches Computer Science,4.0,398.0,-122.4953945,47.24003822,903,47.240044,-122.49540900000001,17801,Puget Sound Educational Service District 121,27010,Tacoma School District,Foss,9,12,2112 S Tyler St, ,Tacoma,Washington,98405-0000,Lysandra  Ness,lness@tacoma.k12.wa.us,253.571.7300," Public School, Regular School",P,High School,Public,98405,53053,Pierce County
3921,Shorewood High School,Teaches Computer Science,11.0,384.0,-122.3501384,47.75412218,200,47.754128,-122.350153,17801,Puget Sound Educational Service District 121,17412,Shoreline School District,Shorewood High School,9,12,17300 Fremont Avenue N., ,Shoreline,Washington,98133-5299,Bill  Dunbar,bill.dunbar@shorelineschools.org,206.393.4374," Public School, Regular School",P,High School,Public,98133,53033,King County
3962,Liberty Sr High School,Teaches Computer Science,9.0,304.0,-122.1175195,47.47999017,1649,47.479996,-122.117534,17801,Puget Sound Educational Service District 121,17411,Issaquah School District,Liberty Sr High School,9,12,16655 SE 136TH ST, ,Renton,Washington,98059-6950,Sean  Martin,martins3@issaquah.wednet.edu,425.837.4800," Public School, Regular School",P,High School,Public,98059,53033,King County
4081,Gig Harbor High,Teaches Computer Science,10.0,177.0,-122.6056344,47.33118023,953,47.331185999999995,-122.605649,17801,Puget Sound Educational Service District 121,27401,Peninsula School District,Gig Harbor High,9,12,5101 Rosedale St NW, ,Gig Harbor,Washington,98335-1899,Tom  Leacy,leacyt@psd401.net,253.530.1400," Public School, Regular School",P,High School,Public,98335,53053,Pierce County
4093,Stanton Academy,Teaches Computer Science,8.0,132.0,-120.5230118,46.61730949,2121,46.61731543,-120.52302590000001,39801,Educational Service District 105,39007,Yakima School District,Stanton Academy,9,12,802 River Rd, ,Yakima,Washington,98902-0000,Dave  Chaplin,chaplin.dave@yakimaschools.org,509.573.1201," Alternative School, Public School",A,High School,Public,98902,53077,Yakima County
4100,Olympic High School,Teaches Computer Science,6.0,121.0,-122.6653273,47.62686822,1939,47.626874,-122.665342,18801,Olympic Educational Service District 114,18401,Central Kitsap School District,Olympic High School,9,12,7077 Stampede Blvd NW, ,Bremerton,Washington,98311,Rebecca  Johnson,rebeccaj@cksd.wednet.edu,360.662.2700," Public School, Regular School",P,High School,Public,98311,53035,Kitsap County
4104,Prairie High School,Teaches Computer Science,4.0,202.0,-122.5549068,45.70481732,49,45.704823,-122.554921,6801,Educational Service District 112,6119,Battle Ground School District,Prairie High School,9,12,PO Box 200, ,Battle Ground,Washington,98604-0200,Stephanie  Watts,watts.stephanie@battlegroundps.org,360.885.5000," Public School, Regular School",P,High School,Public,98604,53011,Clark County
4109,Oakland High School,Teaches Computer Science,6.0,134.0,-122.4857453,47.23052472,2069,47.2305305,-122.48575990000002,17801,Puget Sound Educational Service District 121,27010,Tacoma School District,Oakland High School,9,12,3319 S Adams St, ,Tacoma,Washington,98409-0000,John  Jones,jjones@tacoma.k12.wa.us,253.571.5102," Alternative School, Public School",A,High School,Public,98409,53053,Pierce County
4118,Tri-Tech Skills Center,Teaches Computer Science,8.0,104.0,-119.2008222,46.21846896,2309,46.218475,-119.20083600000001,11801,Educational Service District 123,3017,Kennewick School District,Tri-Tech Skills Center,9,12,5929 WEST METALINE AVENUE, ,Kennewick,Washington,99336-1494,Paul  Randall,paul.randall@ksd.org,509.222.7300," Public School, Vocational/technical school",V,High School,Public,99336,53005,Benton County
4128,Kentwood High School,Teaches Computer Science,12.0,162.0,-122.12017649999999,47.36964418,1168,47.36965,-122.12019099999999,17801,Puget Sound Educational Service District 121,17415,Kent School District,Kentwood High School,9,12,25800 164th Ave SE, ,Covington,Washington,98042-8248,Samantha  Ketover,samantha.ketover@kent.k12.wa.us,253.373.7680," Public School, Regular School",P,High School,Public,98042,53033,King County
4149,South Whidbey High School,Teaches Computer Science,2.0,2.0,-122.40990929999998,48.00565617,245,48.005662,-122.409924,29801,Northwest Educational Service District 189,15206,South Whidbey School District,South Whidbey High School,9,12,5675 Maxwelton, ,Langley,Washington,98260-0390,John  Patton,jpatton@sw.wednet.edu,360.221.4300," Public School, Regular School",P,High School,Public,98260,53029,Island County
4158,Spanaway Lake High School,Teaches Computer Science,6.0,126.0,-122.4124145,47.10572822,254,47.105734000000005,-122.412429,17801,Puget Sound Educational Service District 121,27403,Bethel School District,Spanaway Lake High School,9,12,1305 168th St E, ,Spanaway,Washington,98387-5906,Susie  Askew,saskew@bethelsd.org,253.683.5600," Public School, Regular School",P,High School,Public,98387,53053,Pierce County
4162,Mountain View High School,Teaches Computer Science,10.0,370.0,-122.51827379999999,45.61243732,1836,45.612443,-122.51828799999998,6801,Educational Service District 112,6114,Evergreen School District (Clark),Mountain View High School,9,12,1500 SE Blairmont Dr, ,Vancouver,Washington,98683-8331,Matthew  Johnson,matthew.johnson@evergreenps.org,360.604.6100," Public School, Regular School",P,High School,Public,98683,53011,Clark County
4201,Lynden High School,Teaches Computer Science,2.0,38.0,-122.42846010000001,48.95202413,1692,48.95203,-122.428475,29801,Northwest Educational Service District 189,37504,Lynden School District,Lynden High School,9,12,1201 BRADLEY RD, ,Lynden,Washington,98264-0000,Ian   Freeman,freemani@lynden.wednet.edu,360.354.4443," Public School, Regular School",P,High School,Public,98264,53073,Whatcom County
4206,Kettle Falls High School,Teaches Computer Science,4.0,26.0,-118.05870790000002,48.60014568,1171,48.600152,-118.058722,32801,Educational Service District 101,33212,Kettle Falls School District,Kettle Falls High School,9,12,PO BOX 458, ,Kettle Falls,Washington,99141,Curtis  Corvino,ccorvino@kfschools.org,509.738.6725," Public School, Regular School",P,High School,Public,99141,53065,Stevens County
4208,Woodinville Hs,Teaches Computer Science,8.0,460.0,-122.16193340000001,47.77136616,1287,47.771372,-122.161948,17801,Puget Sound Educational Service District 121,17417,Northshore School District,Woodinville Hs,9,12,19819 136 NE, ,Woodinville,Washington,98072-8797,Kurt  Criscione,kcriscione@nsd.org,425.408.7400," Public School, Regular School",P,High School,Public,98072,53033,King County
4225,New Market Skills Center,Teaches Computer Science,2.0,72.0,-122.9139124,46.98245828,2317,46.982464,-122.913927,34801,Capital Region ESD 113,34033,Tumwater School District,New Market Skills Center,11,12,7299 New Market Street, ,Tumwater,Washington,98501-0000,Kris  Blum,kris.blum@newmarketskills.com,360.570.4500," Public School, Vocational/technical school",V,High School,Public,98501,53067,Thurston County
4233,Marysville Mountain View High School,Teaches Computer Science,11.0,62.0,-122.1976,48.062808000000004,2002,48.062808000000004,-122.1976,29801,Northwest Educational Service District 189,31025,Marysville School District,Marysville Mountain View High School,9,12,7204 27th Ave NE ,,Marysville,Washington,98271,Dawn  Bechtholdt,dawn_bechtholdt@msvl.k12.wa.us,(360)653-0628," Alternative School, Public School",A,High School,Public,98271,53061,Snohomish County
4247,Aces High School,Teaches Computer Science,4.0,42.0,-122.24436329999999,47.91069316,417,47.910699,-122.244378,29801,Northwest Educational Service District 189,31006,Mukilteo School District,Aces High School,9,12,9700 Holly Drive, ,Everett,Washington,98204,Amy D Montanye-Johnson,montanyejohnsonad@mukilteo.wednet.edu,425.366.3900," Alternative School, Public School",A,High School,Public,98204,53061,Snohomish County
4274,Sultan Senior High School,Teaches Computer Science,6.0,100.0,-121.8131014,47.87302312,289,47.873028999999995,-121.813116,29801,Northwest Educational Service District 189,31311,Sultan School District,Sultan Senior High School,9,12,13715 310th Ave S.E., ,Sultan,Washington,98294-0000,Sarita  Whitmire-Skeith,sarita.whitmire@sultan.k12.wa.us,360.793.9860," Public School, Regular School",P,High School,Public,98294,53061,Snohomish County
4287,Weston High School,Teaches Computer Science,3.0,16.0,-122.1701233,48.15309914,1243,48.153105,-122.170138,29801,Northwest Educational Service District 189,31016,Arlington School District,Weston High School,9,12,4407 172nd Street NE, ,Arlington,Washington,98223,Will  Nelson,wnelson@asd.wednet.edu,360.618.6342," Alternative School, Public School",A,High School,Public,98223,53061,Snohomish County
4427,River Ridge High School,Teaches Computer Science,4.0,104.0,-122.7519314,47.05612826,101,47.056134,-122.75194599999999,34801,Capital Region ESD 113,34003,North Thurston Public Schools,River Ridge High School,9,12,350 River Ridge Drive SE, ,Lacey,Washington,98513,Serenity  Malloy,smalloy@nthurston.k12.wa.us,360.412.4820," Public School, Regular School",P,High School,Public,98513,53067,Thurston County
4433,Kamiak High School,Teaches Computer Science,8.0,264.0,-122.3018403,47.90077317,1144,47.900779,-122.301855,29801,Northwest Educational Service District 189,31006,Mukilteo School District,Kamiak High School,9,12,10801 Harbour Pointe Blvd, ,Mukilteo,Washington,98275,Eric S Hong,honges@mukilteo.wednet.edu,425.366.5400," Public School, Regular School",P,High School,Public,98275,53061,Snohomish County
4438,Henry M. Jackson High School,Teaches Computer Science,14.0,434.0,-122.20976040000001,47.87334716,1002,47.873353,-122.209775,29801,Northwest Educational Service District 189,31002,Everett School District,Henry M. Jackson High School,9,12,1508 136th St. SE, ,Mill Creek,Washington,98012-5310,David  Peters,dpeters@everettsd.org,425.385.7000," Public School, Regular School",P,High School,Public,98012,53061,Snohomish County
4439,Eastlake High School,Teaches Computer Science,14.0,372.0,-122.03110179999999,47.613521899999995,794,47.61352775,-122.0311163,17801,Puget Sound Educational Service District 121,17414,Lake Washington School District,Eastlake High School,9,12,400 228th NE, ,Sammamish,Washington,98074-7209,Chris  Bede,cbede@lwsd.org,425.936.1500," Public School, Regular School",P,High School,Public,98074,53033,King County
4474,Auburn Riverside High School,Teaches Computer Science,8.0,120.0,-122.22223249999999,47.26775919,466,47.267765000000004,-122.222247,17801,Puget Sound Educational Service District 121,17408,Auburn School District,Auburn Riverside High School,9,12,501 ORAVETZ RD SE, ,Auburn,Washington,98092-8621,David  Halford,dhalford@auburn.wednet.edu,253.804.5154," Public School, Regular School",P,High School,Public,98092,53033,King County
4484,Southridge High School,Teaches Computer Science,16.0,114.0,-119.19500719999999,46.17932796,248,46.179334000000004,-119.195021,11801,Educational Service District 123,3017,Kennewick School District,Southridge High School,9,12,3320 Southridge Boulevard, ,Kennewick,Washington,99338-1976,Molly  Hamaker-Teals,molly.hamaker-teals@ksd.org,509.222.6528," Public School, Regular School",P,High School,Public,99338,53005,Benton County
4491,Mt Spokane High School,Teaches Computer Science,4.0,196.0,-117.3231843,47.78886366,1854,47.78887,-117.323198,32801,Educational Service District 101,32354,Mead School District,Mt Spokane High School,9,12,6015 E MT. SPOKANE PARK DR, ,Mead,Washington,99021-9468,Darren  Nelson,darren.nelson@mead354.org,509.465.7210," Public School, Regular School",P,High School,Public,99021,53063,Spokane County
4492,Kentlake High School,Teaches Computer Science,6.0,138.0,-122.0571605,47.33145317,1165,47.331459,-122.057175,17801,Puget Sound Educational Service District 121,17415,Kent School District,Kentlake High School,9,12,21401 SE Falcon Way, ,Kent,Washington,98042-5939,Heidi  Maurer,heidi.maurer@kent.k12.wa.us,253.373.4900," Public School, Regular School",P,High School,Public,98042,53033,King County
4495,Skyline High School,Teaches Computer Science,8.0,374.0,-122.0314034,47.60016515,222,47.600171,-122.03141799999999,17801,Puget Sound Educational Service District 121,17411,Issaquah School District,Skyline High School,9,12,1122 228TH AVE SE, ,Sammamish,Washington,98075-9509,Kieth  Hennig,hennigk@issaquah.wednet.edu,425.837.7706," Public School, Regular School",P,High School,Public,98075,53033,King County
4500,A G West Black Hills High School,Teaches Computer Science,4.0,80.0,-122.9480884,46.97821428,414,46.97822,-122.948103,34801,Capital Region ESD 113,34033,Tumwater School District,A G West Black Hills High School,9,12,7741 Littlerock Road SW, ,Tumwater,Washington,98512-0000,Dave  Myers,dave.myers@tumwater.k12.wa.us,360.709.7800," Public School, Regular School",P,High School,Public,98512,53067,Thurston County
4504,Skyview High School,Teaches Computer Science,12.0,452.0,-122.6835737,45.72274433,224,45.72275,-122.68358799999999,6801,Educational Service District 112,6037,Vancouver School District,Skyview High School,9,12,1300 NW 139TH ST, ,Vancouver,Washington,98685-1858,James Edwin Gray,james.gray@vansd.org,360.313.4200," Public School, Regular School",P,High School,Public,98685,53011,Clark County
4515,Squalicum High School,Teaches Computer Science,8.0,152.0,-122.4228761,48.78439113,261,48.784397,-122.42289099999999,29801,Northwest Educational Service District 189,37501,Bellingham School District,Squalicum High School,9,12,3773 E McLeod Rd, ,Bellingham,Washington,98226-7728,Miguel  Perez,miguel.perez@bellinghamschools.org,360.676.6471," Public School, Regular School",P,High School,Public,98226,53073,Whatcom County
4523,Heritage High School,Teaches Computer Science,6.0,155.0,-122.5379168,45.67962132,1043,45.679627,-122.537931,6801,Educational Service District 112,6114,Evergreen School District (Clark),Heritage High School,9,12,7825 NE 130th Avenue, ,Vancouver,Washington,98682-3316,Derek  Garrison,derek.garrison@evergreenps.org,360.604.3400," Public School, Regular School",P,High School,Public,98682,53011,Clark County
4528,Monroe High School,Teaches Computer Science,3.0,55.0,-122.00991940000002,47.84343514,1813,47.843441,-122.00993400000002,29801,Northwest Educational Service District 189,31103,Monroe School District,Monroe High School,9,12,17001 Tester Rd., ,Monroe,Washington,98272-2896,Ed  Crow,crowe@monroe.wednet.edu,360.804.4500," Public School, Regular School",P,High School,Public,98272,53061,Snohomish County
4540,Emerald Ridge High School,Teaches Computer Science,8.0,100.0,-122.2628715,47.08944521,828,47.089451000000004,-122.26288600000001,17801,Puget Sound Educational Service District 121,27003,Puyallup School District,Emerald Ridge High School,10,12,12405 184th St E, ,Puyallup,Washington,98374-9135,Richard  Lasso,lassor@puyallup.k12.wa.us,253.435.6300," Public School, Regular School",P,High School,Public,98374,53053,Pierce County
4567,Camas High School,Teaches Computer Science,6.0,150.0,-122.39856280000001,45.61215831,557,45.612164,-122.398577,6801,Educational Service District 112,6117,Camas School District,Camas High School,9,12,26900 SE 15TH ST, ,Camas,Washington,98607-7296,Elizabeth  Curran-Sejkora,liza.sejkora@camas.wednet.edu,360.833.5750," Public School, Regular School",P,High School,Public,98607,53011,Clark County
4569,White River High School,Teaches Computer Science,4.0,116.0,-122.0732845,47.14551418,1251,47.14552,-122.073299,17801,Puget Sound Educational Service District 121,27416,White River School District,White River High School,9,12,P. O. Box 1683, ,Buckley,Washington,98321,Cody  Mothershead,cmotherhead@whiteriver.wednet.edu,360.829.3352," Public School, Regular School",P,High School,Public,98321,53053,Pierce County
4570,Todd Beamer High School,Teaches Computer Science,6.0,175.0,-122.3149565,47.2780472,343,47.278053,-122.314971,17801,Puget Sound Educational Service District 121,17210,Federal Way School District,Todd Beamer High School,9,12,35999 16TH AV S, ,Federal Way,Washington,98003-7414,Anali  Weatherhead,aweather@fwps.org,253.945.2570," Public School, Regular School",P,High School,Public,98003,53033,King County
4585,Bonney Lake High School,Teaches Computer Science,6.0,168.0,-122.16873770000001,47.15933445,521,47.15934026,-122.16875209999999,17801,Puget Sound Educational Service District 121,27320,Sumner School District,Bonney Lake High School,9,12,10920 199th Ave Ct E, ,Bonney Lake,Washington,98391,Cris  Turner,cris_turner@sumnersd.org,253.891.5700," Public School, Regular School",P,High School,Public,98391,53053,Pierce County
5033,Graham Kapowsin High School,Teaches Computer Science,12.0,342.0,-122.2867365,47.05733021,972,47.057336,-122.286751,17801,Puget Sound Educational Service District 121,27403,Bethel School District,Graham Kapowsin High School,9,12,22100 108th Ave E, ,Graham,Washington,98338,Matt  Yarkosky,myarkosky@bethelsd.org,253.683.6100," Public School, Regular School",P,High School,Public,98338,53053,Pierce County
5037,Auburn Mountainview High School,Teaches Computer Science,9.0,202.0,-122.1718135,47.34202318,465,47.342029,-122.171828,17801,Puget Sound Educational Service District 121,17408,Auburn School District,Auburn Mountainview High School,9,12,28900 124th AVE SE, ,Auburn,Washington,98092-3101,Terri  Herren,therren@auburn.wednet.edu,253.804.4539," Public School, Regular School",P,High School,Public,98092,53033,King County
5071,Insight School Of Washington,Teaches Computer Science,4.0,62.0,-124.383765,47.94848738,1557,47.948493,-124.38378,18801,Olympic Educational Service District 114,5402,Quillayute Valley School District,Insight School Of Washington,9,12,411 South Spartan Ave, ,Forks,Washington,98331,Darice  Bales,darice.bales@k12insightwa.org,425.533.2700 ext. 2004," Alternative School, Public School",A,High School,Public,98331,53031,Jefferson County
5085,Kingston High School,Teaches Computer Science,2.0,24.0,-122.52028229999999,47.80002219,1176,47.800028000000005,-122.520297,18801,Olympic Educational Service District 114,18400,North Kitsap School District,Kingston High School,9,12,26201 Siyaya Avenue NE, ,Kingston,Washington,98346,Christiana M Cole,ccole@nkschools.org,360.396.3302," Public School, Regular School",P,High School,Public,98346,53035,Kitsap County
5104,Hayes Freedom High School,Teaches Computer Science,6.0,130.0,-122.4013699,45.59265006,1028,45.59265575,-122.40138400000001,6801,Educational Service District 112,6117,Camas School District,Hayes Freedom High School,9,12,1919 NE Ione St, ,Camas,Washington,98607,Amy K Holmes,amy.holmes@camas.wednet.edu,360.833.5602," Public School, Regular School",P,High School,Public,98607,53011,Clark County
5111,Union High School,Teaches Computer Science,10.0,430.0,-122.46766640000001,45.62422615,1400,45.62423184,-122.46768059999998,6801,Educational Service District 112,6114,Evergreen School District (Clark),Union High School,9,12,6201 NW Friberg-Strunk St, ,Camas,Washington,98607-0000,Brian  Grimsted,brian.grimsted@evergreenps.org,360.604.6250," Public School, Regular School",P,High School,Public,98607,53011,Clark County
5128,Glacier Peak High School,Teaches Computer Science,8.0,198.0,-122.1334574,47.86780515,958,47.867810999999996,-122.133472,29801,Northwest Educational Service District 189,31201,Snohomish School District,Glacier Peak High School,9,12,7401 144th Pl SE, ,Snohomish,Washington,98296,Jeff  Larson,jeffrey.larson@sno.wednet.edu,360.563.7300," Public School, Regular School",P,High School,Public,98296,53061,Snohomish County
5164,Chiawana High School,Teaches Computer Science,16.0,554.0,-119.19691920000001,46.25764116,654,46.25764721,-119.196933,11801,Educational Service District 123,11001,Pasco School District,Chiawana High School,8,12,8125 W Argent Rd,Booth Bldg,Pasco,Washington,99301,John  Wallwork,jwallwork@psd1.org,509.543.6786," Public School, Regular School",P,High School,Public,99301,53021,Franklin County
5169,Science And Math Institute,Teaches Computer Science,7.0,210.0,-122.51095079999999,47.30188036,2071,47.30188614,-122.5109654,17801,Puget Sound Educational Service District 121,27010,Tacoma School District,Science And Math Institute,9,12,5501 N. Pearl St, ,Tacoma,Washington,98407,Jon   Ketler,jketler@tacoma.k12.wa.us,253.571.2300," Public School, Regular School",P,High School,Public,98407,53053,Pierce County
5197,Washington Virtual Academy Omak High School,Teaches Computer Science,6.0,166.0,-119.5338887,48.40955085,1528,48.409557,-119.53390300000001,4801,North Central Educational Service District 171,24019,Omak School District,Washington Virtual Academy Omak High School,9,12,PO Box 833, ,Omak,Washington,98841,Jayme  Evans,jaevans@k12.com,253.964.1068," Public School, Regular School",P,High School,Public,98841,53047,Okanogan County
5213,Marysville Pilchuck High School,Teaches Computer Science,4.0,462.0,-122.15483130000001,48.09636814,1742,48.096374,-122.15484599999999,29801,Northwest Educational Service District 189,31025,Marysville School District,Marysville Pilchuck High School,9,12,5611 108th Street NE, ,Marysville,Washington,98271,Dave   Rose,david_rose@msd25.org,360.965.2000," Public School, Regular School",P,High School,Public,98271,53061,Snohomish County
5226,Selkirk High School,Teaches Computer Science,4.0,18.0,-117.39823100000001,48.819030600000005,2152,48.819037,-117.39824499999999,32801,Educational Service District 101,26070,Selkirk School District,Selkirk High School,9,12,10372 Highway 31, ,Ione,Washington,99139-9613,Brent  Deroest,bderoest@selkirkschools.org,509.446.3505," Public School, Regular School",P,High School,Public,99139,53051,Pend Oreille County
5260,Seattle Skills Center,Teaches Computer Science,4.0,25.0,-122.33009540000002,47.58093419,2031,47.580940000000005,-122.33011,17801,Puget Sound Educational Service District 121,17001,Seattle Public Schools,Seattle Skills Center,9,12,PO Box 34165, ,Seattle,Washington,98124-1165,Dan  Golosman,dpgolosman@seattleschools.org,206.252.0730," Public School, Vocational/technical school",V,High School,Public,98124,53033,King County
5265,Tesla Stem High School,Teaches Computer Science,23.0,1814.0,-122.03650549999999,47.64867192,2150,47.64867777,-122.03652009999999,17801,Puget Sound Educational Service District 121,17414,Lake Washington School District,Tesla Stem High School,9,12,4301 228th Ave NE, ,Redmond,Washington,98053-8333,Cindy  Duenas,cduenas@lwsd.org,425.936.2770," Alternative School, Public School",A,High School,Public,98053,53033,King County
5268,Riverpoint Academy,Teaches Computer Science,16.0,349.0,-117.3930551,47.75772822,2278,47.75773455,-117.39306880000001,32801,Educational Service District 101,32354,Mead School District,Riverpoint Academy,9,12,11008 N. Newport Hwy, ,Spokane,Washington,99218,Moleena  Harris,moleena.harris@mead354.org,509.465.7900," Affiliated With District, Public School",P,High School,Public,99218,53063,Spokane County
5273,Columbia Basin Technical Skills Center ,Teaches Computer Science,2.0,16.0,-119.264275,47.104482899999994,2018,47.104489,-119.26428899999999,4801,North Central Educational Service District 171,13161,Moses Lake School District,Columbia Basin Technical Skills Center,10,12,900 W Yonezawa Blvd, ,Moses Lake,Washington,98837,Christine   Armstrong,carmstrong@cbtech.k12.wa.us,509.766.2650," Public School, Vocational/technical school",V,High School,Public,98837,53025,Grant County
5278,Spokane Valley Tech,Teaches Computer Science,4.0,24.0,-117.2604553,47.65592967,2365,47.655936,-117.260469,32801,Educational Service District 101,32356,Central Valley School District,Spokane Valley Tech,9,12,115 S University Rd, ,Spokane Valley,Washington,99206-6067,Scott  Oakshott,soakshott@cvsd.org,509.228.5601," Public School, Vocational/technical school",V,High School,Public,99206,53063,Spokane County
5310,Henrietta Lacks Health And Bioscience High School,Teaches Computer Science,8.0,72.0,-122.5792858,45.62728432,2151,45.62729,-122.5793,6801,Educational Service District 112,6114,Evergreen School District (Clark),Henrietta Lacks Health And Bioscience High School,9,12,9105 NE 9th Street, ,Vancouver,Washington,98664,Julie  Tumelty,julie.tumelty@evergreenps.org,360.604.4057," Affiliated With District, Public School",P,High School,Public,98664,53011,Clark County
5433,Ev Parent Partnership,Teaches Computer Science,1.0,1.0,-117.2384663,47.68476361,2210,47.68476995,-117.23848000000001,32801,Educational Service District 101,32361,East Valley School District (Spokane),Ev Parent Partnership,K,12,12325 E Grace Ave, ,Spokane Valley,Washington,99216,Frank  Brou,brouf@evsd.org,509-241-5001," Alternative School, Public School",A,K-12,Public,99216,53063,Spokane County
5458,Industrial Design Engineering And Art,Teaches Computer Science,4.0,302.0,-122.4413835,47.19579507,2199,47.19580086,-122.44139809999999,17801,Puget Sound Educational Service District 121,27010,Tacoma School District,Industrial Design Engineering And Art,9,11,6701 S Park Ave, ,Tacoma,Washington,98444,Zach  Varnell,zvarnel@tacoma.k12.wa.us,253.571.7906," Public School, Regular School",P,High School,Public,98444,53053,Pierce County
5480,Pacific Crest Innovation Academy,Teaches Computer Science,1.0,1.0,-121.64970790000001,45.75742323,2224,45.757428999999995,-121.649722,6801,Educational Service District 112,30031,Mill A School District,Pacific Crest Innovation Academy,9,12,1142 Jessup rd, ,Cook,Washington,98605,Bob  Rogers,info@pacificcrestia.org,509-538-2700," Affiliated With District, Public School",P,High School,Public,98605,53059,Skamania County
5481,North Creek High School,Teaches Computer Science,8.0,326.0,-122.18164490000001,47.82545463,2228,47.82546048,-122.18165959999999,17801,Puget Sound Educational Service District 121,17417,Northshore School District,North Creek High School,9,12,3613 191st PL SE, ,Bothell,Washington,98012,Eric Thomas Mcdowell,emcdowell@nsd.org,425-408-8805," Public School, Regular School",P,High School,Public,98012,53061,Snohomish County
5545,Kalama High School,Teaches Computer Science,2.0,14.0,-122.83813899999998,46.00862681,2346,46.00863248,-122.8381533,6801,Educational Service District 112,8402,Kalama School District,Kalama High School,9,12,548 China Garden Road, ,Kalama,Washington,98625,Guy  Strot,guy.strot@kalama.k12.wa.us,360.673.5212," Public School, Regular School",P,High School,Public,98625,53015,Cowlitz County
5958,Washington Network For Innovative Careers,Teaches Computer Science,3.0,113.0,-122.1657044,47.70518316,1460,47.705189000000004,-122.165719,17801,Puget Sound Educational Service District 121,17414,Lake Washington School District,Washington Network For Innovative Careers,9,12,PO Box 97039, ,Redmond,Washington,98073-9739,Karen  Hay,khay@lwsd.org,425.739.8400," Public School, Vocational/technical school",V,High School,Public,98073,53033,King County
5961,Pierce County Skills Center,Teaches Computer Science,4.0,76.0,-122.35600590000001,47.10906981,2318,47.10907559,-122.35602040000002,17801,Puget Sound Educational Service District 121,27403,Bethel School District,Pierce County Skills Center,8,12,16117 Canyon Rd E, ,Puyallup,Washington,98375,Michelle  Ledbetter,mledbetter@bethelsd.org,253.683.5977," Public School, Vocational/technical school",V,High School,Public,98375,53053,Pierce County
3015,Othello High School,Doesn't Teach Computer Science,0.0,0.0,-119.16612009999999,46.82331691,1968,46.823322999999995,-119.16613400000001,11801,Educational Service District 123,1147,Othello School District,Othello High School,9,12,340 S 7th Ave, ,Othello,Washington,99344-1463,Alejandro  Vergara,avergara@othelloschools.org,509.488.3351 ext. 2010," Public School, Regular School",P,High School,Public,99344,53001,Adams County
2508,Prosser High School,Doesn't Teach Computer Science,0.0,0.0,-119.76579009999999,46.20371401,55,46.203720000000004,-119.765804,11801,Educational Service District 123,3116,Prosser School District,Prosser High School,9,12,1203 Prosser Ave., ,Prosser,Washington,99350-1430,Kevin  Lusk,kevin.lusk@prosserschools.org,509.786.1224," Public School, Regular School",P,High School,Public,99350,53005,Benton County
3511,Richland High School,Doesn't Teach Computer Science,0.0,0.0,-119.2881422,46.27834596,89,46.278352000000005,-119.288156,11801,Educational Service District 123,3400,Richland School District,Richland High School,9,12,930 Long Ave, ,Richland,Washington,99352-0000,Tim  Praino,tim.praino@rsd.edu,509.967.6535," Public School, Regular School",P,High School,Public,99352,53005,Benton County
3268,Cashmere High School,Doesn't Teach Computer Science,0.0,0.0,-120.4790247,47.513051000000004,594,47.513057,-120.47903899999999,4801,North Central Educational Service District 171,4222,CASHMERE SCHOOL DISTRICT,Cashmere High School,9,12,329 Tigner Road, ,Cashmere,Washington,98815-1249,William Anthony  Boyle,tboyle@cashmere.wednet.edu,509.782.2914," Public School, Regular School",P,High School,Public,98815,53007,Chelan County
4105,Wenatchee Valley Technical Skills Center,Doesn't Teach Computer Science,0.0,0.0,-120.3292347,47.46556352,2320,47.46556954,-120.32924890000001,4801,North Central Educational Service District 171,4246,Wenatchee School District,Wenatchee Valley Technical Skills Center,9,12,327 E PENNY ROAD STE D, ,Wenatchee,Washington,98801-8106,Peter E Jelsing,jelsing.p@wenatcheeschools.org,509.662.8827," Public School, Vocational/technical school",V,High School,Public,98801,53007,Chelan County
5149,Vancouver Virtual Learning Academy,Doesn't Teach Computer Science,0.0,0.0,-122.5847358,45.61943133,2090,45.619437,-122.58475,6801,Educational Service District 112,6037,Vancouver School District,Vancouver Virtual Learning Academy,6,12,PO BOX 8937, ,Vancouver,Washington,98668-8937,Deanna Lynn Hogan,deanna.hogan@vansd.org,360.313.4990," Alternative School, Public School",A,K-12,Public,98668,53011,Clark County
3147,Washougal High School,Doesn't Teach Computer Science,0.0,0.0,-122.32782479999999,45.58495429999999,1219,45.584959999999995,-122.32783899999998,6801,Educational Service District 112,6112,Washougal School District,Washougal High School,9,12,1201 39TH ST, ,Washougal,Washington,98671-9112,David Aaron Hansen,aaron.hansen@washougalsd.org,360.954.3100," Public School, Regular School",P,High School,Public,98671,53059,Skamania County
4203,Cascadia Technical Academy Skills Center,Doesn't Teach Computer Science,0.0,0.0,-122.5485703,45.64496506,2319,45.64497075,-122.5485845,6801,Educational Service District 112,6114,Evergreen School District (Clark),Cascadia Technical Academy Skills Center,9,12,12200 NE 28th Street, ,Vancouver,Washington,98682-7858,Mark  Mansell,mark.mansell@evergreenps.org,360.604.1050," Public School, Vocational/technical school",V,High School,Public,98682,53011,Clark County
5312,Discovery High School,Doesn't Teach Computer Science,0.0,0.0,-122.9571418,46.13930772,2336,46.13931339,-122.95715619999999,6801,Educational Service District 112,8122,Longview School District,Discovery High School,9,12,2742 Harding Blvd, ,Longview,Washington,98632,Michael  Kleiner,mkleiner@longview.k12.wa.us,360.414.2926," Alternative School, Public School",A,High School,Public,98632,53015,Cowlitz County
5400,Discovery High School-Achieve,Doesn't Teach Computer Science,0.0,0.0,-122.957249,46.13922586,2207,46.13923153,-122.9572633,6801,Educational Service District 112,8122,Longview School District,Discovery High School-Achieve,9,12,2742 Harding, ,Longview,Washington,98632,Michael  Kleiner,mkleiner@longview.k12.wa.us,360.414.2926," Public School, Re-Engagement School",R,High School,Public,98632,53015,Cowlitz County
2727,Eastmont Senior High,Doesn't Teach Computer Science,0.0,0.0,-120.27257979999999,47.41114499,795,47.411151000000004,-120.272594,4801,North Central Educational Service District 171,9206,Eastmont School District,Eastmont Senior High,10,12,955 3rd Street NE, ,East Wenatchee,Washington,98802-4999,Lance   Noel,noelll@eastmont206.org,509.884.6665," Public School, Regular School",P,High School,Public,98802,53017,Douglas County
3372,Eastmont Junior High,Doesn't Teach Computer Science,0.0,0.0,-120.2732618,47.41805399,796,47.41806,-120.273276,4801,North Central Educational Service District 171,9206,Eastmont School District,Eastmont Junior High,8,9,905 NE 8th Street, ,East Wenatchee,Washington,98802-4498,Amy  Dorey,doreya@eastmont206.org,509.884.2407," Public School, Regular School",P,High School,Public,98802,53017,Douglas County
